[
  {
    "id": 0,
    "name": "Admiralteisky",
    "latitude": "59.90839000",
    "longitude": "30.28484000",
    "stateId": 1879,
    "stateCode": "SPE",
    "countryCode": "RU"
  },
  {
    "id": 1,
    "name": "Aleksandrovskaya",
    "latitude": "59.73083000",
    "longitude": "30.33222000",
    "stateId": 1879,
    "stateCode": "SPE",
    "countryCode": "RU"
  },
  {
    "id": 2,
    "name": "Avtovo",
    "latitude": "59.87167000",
    "longitude": "30.26583000",
    "stateId": 1879,
    "stateCode": "SPE",
    "countryCode": "RU"
  },
  {
    "id": 3,
    "name": "Beloostrov",
    "latitude": "60.15118000",
    "longitude": "30.00151000",
    "stateId": 1879,
    "stateCode": "SPE",
    "countryCode": "RU"
  },
  {
    "id": 4,
    "name": "Centralniy",
    "latitude": "59.93111000",
    "longitude": "30.36072000",
    "stateId": 1879,
    "stateCode": "SPE",
    "countryCode": "RU"
  },
  {
    "id": 5,
    "name": "Dachnoye",
    "latitude": "59.84167000",
    "longitude": "30.25583000",
    "stateId": 1879,
    "stateCode": "SPE",
    "countryCode": "RU"
  },
  {
    "id": 6,
    "name": "Frunzenskiy Rayon",
    "latitude": "59.87190000",
    "longitude": "30.37891000",
    "stateId": 1879,
    "stateCode": "SPE",
    "countryCode": "RU"
  },
  {
    "id": 7,
    "name": "Gorelovo",
    "latitude": "59.77234000",
    "longitude": "30.13455000",
    "stateId": 1879,
    "stateCode": "SPE",
    "countryCode": "RU"
  },
  {
    "id": 8,
    "name": "Grazhdanka",
    "latitude": "60.03587000",
    "longitude": "30.40518000",
    "stateId": 1879,
    "stateCode": "SPE",
    "countryCode": "RU"
  },
  {
    "id": 9,
    "name": "Kolomyagi",
    "latitude": "60.02427000",
    "longitude": "30.28491000",
    "stateId": 1879,
    "stateCode": "SPE",
    "countryCode": "RU"
  },
  {
    "id": 10,
    "name": "Kolpino",
    "latitude": "59.75069000",
    "longitude": "30.58856000",
    "stateId": 1879,
    "stateCode": "SPE",
    "countryCode": "RU"
  },
  {
    "id": 11,
    "name": "Komarovo",
    "latitude": "60.18660000",
    "longitude": "29.80865000",
    "stateId": 1879,
    "stateCode": "SPE",
    "countryCode": "RU"
  },
  {
    "id": 12,
    "name": "Komendantsky aerodrom",
    "latitude": "60.00448000",
    "longitude": "30.27523000",
    "stateId": 1879,
    "stateCode": "SPE",
    "countryCode": "RU"
  },
  {
    "id": 13,
    "name": "Krasnogvargeisky",
    "latitude": "59.97305000",
    "longitude": "30.47607000",
    "stateId": 1879,
    "stateCode": "SPE",
    "countryCode": "RU"
  },
  {
    "id": 14,
    "name": "Krasnoye Selo",
    "latitude": "59.73833000",
    "longitude": "30.08944000",
    "stateId": 1879,
    "stateCode": "SPE",
    "countryCode": "RU"
  },
  {
    "id": 15,
    "name": "Kronshtadt",
    "latitude": "59.99541000",
    "longitude": "29.76668000",
    "stateId": 1879,
    "stateCode": "SPE",
    "countryCode": "RU"
  },
  {
    "id": 16,
    "name": "Kupchino",
    "latitude": "59.85278000",
    "longitude": "30.35667000",
    "stateId": 1879,
    "stateCode": "SPE",
    "countryCode": "RU"
  },
  {
    "id": 17,
    "name": "Kurortnyy Rayon",
    "latitude": "60.17601000",
    "longitude": "29.87389000",
    "stateId": 1879,
    "stateCode": "SPE",
    "countryCode": "RU"
  },
  {
    "id": 18,
    "name": "Kushelevka",
    "latitude": "59.99333000",
    "longitude": "30.36389000",
    "stateId": 1879,
    "stateCode": "SPE",
    "countryCode": "RU"
  },
  {
    "id": 19,
    "name": "Lakhtinskiy",
    "latitude": "59.99521000",
    "longitude": "30.14717000",
    "stateId": 1879,
    "stateCode": "SPE",
    "countryCode": "RU"
  },
  {
    "id": 20,
    "name": "Levashovo",
    "latitude": "60.10369000",
    "longitude": "30.20683000",
    "stateId": 1879,
    "stateCode": "SPE",
    "countryCode": "RU"
  },
  {
    "id": 21,
    "name": "Lisiy Nos",
    "latitude": "60.01686000",
    "longitude": "30.02008000",
    "stateId": 1879,
    "stateCode": "SPE",
    "countryCode": "RU"
  },
  {
    "id": 22,
    "name": "Lomonosov",
    "latitude": "59.90612000",
    "longitude": "29.77253000",
    "stateId": 1879,
    "stateCode": "SPE",
    "countryCode": "RU"
  },
  {
    "id": 23,
    "name": "Metallostroy",
    "latitude": "59.80083000",
    "longitude": "30.54778000",
    "stateId": 1879,
    "stateCode": "SPE",
    "countryCode": "RU"
  },
  {
    "id": 24,
    "name": "Molodezhnoye",
    "latitude": "60.19803000",
    "longitude": "29.51597000",
    "stateId": 1879,
    "stateCode": "SPE",
    "countryCode": "RU"
  },
  {
    "id": 25,
    "name": "Novaya Derevnya",
    "latitude": "59.98748000",
    "longitude": "30.28682000",
    "stateId": 1879,
    "stateCode": "SPE",
    "countryCode": "RU"
  },
  {
    "id": 26,
    "name": "Obukhovo",
    "latitude": "59.84389000",
    "longitude": "30.45111000",
    "stateId": 1879,
    "stateCode": "SPE",
    "countryCode": "RU"
  },
  {
    "id": 27,
    "name": "Ol’gino",
    "latitude": "60.00928000",
    "longitude": "30.11559000",
    "stateId": 1879,
    "stateCode": "SPE",
    "countryCode": "RU"
  },
  {
    "id": 28,
    "name": "Ozerki",
    "latitude": "60.03947000",
    "longitude": "30.31128000",
    "stateId": 1879,
    "stateCode": "SPE",
    "countryCode": "RU"
  },
  {
    "id": 29,
    "name": "Pargolovo",
    "latitude": "60.08120000",
    "longitude": "30.27626000",
    "stateId": 1879,
    "stateCode": "SPE",
    "countryCode": "RU"
  },
  {
    "id": 30,
    "name": "Pavlovsk",
    "latitude": "59.68333000",
    "longitude": "30.43472000",
    "stateId": 1879,
    "stateCode": "SPE",
    "countryCode": "RU"
  },
  {
    "id": 31,
    "name": "Pesochnyy",
    "latitude": "60.12295000",
    "longitude": "30.16404000",
    "stateId": 1879,
    "stateCode": "SPE",
    "countryCode": "RU"
  },
  {
    "id": 32,
    "name": "Peterhof",
    "latitude": "59.88333000",
    "longitude": "29.90000000",
    "stateId": 1879,
    "stateCode": "SPE",
    "countryCode": "RU"
  },
  {
    "id": 33,
    "name": "Petro-Slavyanka",
    "latitude": "59.80222000",
    "longitude": "30.50694000",
    "stateId": 1879,
    "stateCode": "SPE",
    "countryCode": "RU"
  },
  {
    "id": 34,
    "name": "Petrodvorets",
    "latitude": "59.89565000",
    "longitude": "29.80145000",
    "stateId": 1879,
    "stateCode": "SPE",
    "countryCode": "RU"
  },
  {
    "id": 35,
    "name": "Petrogradka",
    "latitude": "59.96567000",
    "longitude": "30.31154000",
    "stateId": 1879,
    "stateCode": "SPE",
    "countryCode": "RU"
  },
  {
    "id": 36,
    "name": "Pontonnyy",
    "latitude": "59.78667000",
    "longitude": "30.61528000",
    "stateId": 1879,
    "stateCode": "SPE",
    "countryCode": "RU"
  },
  {
    "id": 37,
    "name": "Primorskiy Rayon",
    "latitude": "59.99624000",
    "longitude": "30.24090000",
    "stateId": 1879,
    "stateCode": "SPE",
    "countryCode": "RU"
  },
  {
    "id": 38,
    "name": "Pushkin",
    "latitude": "59.71417000",
    "longitude": "30.39642000",
    "stateId": 1879,
    "stateCode": "SPE",
    "countryCode": "RU"
  },
  {
    "id": 39,
    "name": "Razliv",
    "latitude": "60.07919000",
    "longitude": "29.97206000",
    "stateId": 1879,
    "stateCode": "SPE",
    "countryCode": "RU"
  },
  {
    "id": 40,
    "name": "Repino",
    "latitude": "60.17217000",
    "longitude": "29.86908000",
    "stateId": 1879,
    "stateCode": "SPE",
    "countryCode": "RU"
  },
  {
    "id": 41,
    "name": "Saint Petersburg",
    "latitude": "59.93863000",
    "longitude": "30.31413000",
    "stateId": 1879,
    "stateCode": "SPE",
    "countryCode": "RU"
  },
  {
    "id": 42,
    "name": "Sapërnyy",
    "latitude": "59.77611000",
    "longitude": "30.66139000",
    "stateId": 1879,
    "stateCode": "SPE",
    "countryCode": "RU"
  },
  {
    "id": 43,
    "name": "Sestroretsk",
    "latitude": "60.09801000",
    "longitude": "29.96378000",
    "stateId": 1879,
    "stateCode": "SPE",
    "countryCode": "RU"
  },
  {
    "id": 44,
    "name": "Shushary",
    "latitude": "59.80917000",
    "longitude": "30.38167000",
    "stateId": 1879,
    "stateCode": "SPE",
    "countryCode": "RU"
  },
  {
    "id": 45,
    "name": "Shuvalovo",
    "latitude": "60.04903000",
    "longitude": "30.29360000",
    "stateId": 1879,
    "stateCode": "SPE",
    "countryCode": "RU"
  },
  {
    "id": 46,
    "name": "Solnechnoye",
    "latitude": "60.15612000",
    "longitude": "29.94753000",
    "stateId": 1879,
    "stateCode": "SPE",
    "countryCode": "RU"
  },
  {
    "id": 47,
    "name": "Sosnovaya Polyana",
    "latitude": "59.83528000",
    "longitude": "30.14667000",
    "stateId": 1879,
    "stateCode": "SPE",
    "countryCode": "RU"
  },
  {
    "id": 48,
    "name": "Sosnovka",
    "latitude": "60.01667000",
    "longitude": "30.35000000",
    "stateId": 1879,
    "stateCode": "SPE",
    "countryCode": "RU"
  },
  {
    "id": 49,
    "name": "Staraya Derevnya",
    "latitude": "59.98834000",
    "longitude": "30.24296000",
    "stateId": 1879,
    "stateCode": "SPE",
    "countryCode": "RU"
  },
  {
    "id": 50,
    "name": "Strel'na",
    "latitude": "59.85189000",
    "longitude": "30.03611000",
    "stateId": 1879,
    "stateCode": "SPE",
    "countryCode": "RU"
  },
  {
    "id": 51,
    "name": "Tarkhovka",
    "latitude": "60.06687000",
    "longitude": "29.97435000",
    "stateId": 1879,
    "stateCode": "SPE",
    "countryCode": "RU"
  },
  {
    "id": 52,
    "name": "Tyarlevo",
    "latitude": "59.70777000",
    "longitude": "30.44543000",
    "stateId": 1879,
    "stateCode": "SPE",
    "countryCode": "RU"
  },
  {
    "id": 53,
    "name": "Uritsk",
    "latitude": "59.83889000",
    "longitude": "30.17528000",
    "stateId": 1879,
    "stateCode": "SPE",
    "countryCode": "RU"
  },
  {
    "id": 54,
    "name": "Ust’-Izhora",
    "latitude": "59.81194000",
    "longitude": "30.58139000",
    "stateId": 1879,
    "stateCode": "SPE",
    "countryCode": "RU"
  },
  {
    "id": 55,
    "name": "Vasileostrovskiy Rayon",
    "latitude": "59.93971000",
    "longitude": "30.26115000",
    "stateId": 1879,
    "stateCode": "SPE",
    "countryCode": "RU"
  },
  {
    "id": 56,
    "name": "Vasyl'evsky Ostrov",
    "latitude": "59.94091000",
    "longitude": "30.25377000",
    "stateId": 1879,
    "stateCode": "SPE",
    "countryCode": "RU"
  },
  {
    "id": 57,
    "name": "Zelenogorsk",
    "latitude": "60.19968000",
    "longitude": "29.70183000",
    "stateId": 1879,
    "stateCode": "SPE",
    "countryCode": "RU"
  }
]