[
  {
    "id": 0,
    "name": "Aba",
    "latitude": "31.90156940",
    "longitude": "102.22292370",
    "stateId": 2277,
    "stateCode": "SC",
    "countryCode": "CN"
  },
  {
    "id": 1,
    "name": "Anju",
    "latitude": "30.35278710",
    "longitude": "105.45896400",
    "stateId": 2277,
    "stateCode": "SC",
    "countryCode": "CN"
  },
  {
    "id": 2,
    "name": "Anyue",
    "latitude": "30.00390250",
    "longitude": "105.39925800",
    "stateId": 2277,
    "stateCode": "SC",
    "countryCode": "CN"
  },
  {
    "id": 3,
    "name": "Anzhou",
    "latitude": "31.57997220",
    "longitude": "104.38167340",
    "stateId": 2277,
    "stateCode": "SC",
    "countryCode": "CN"
  },
  {
    "id": 4,
    "name": "Baiyu",
    "latitude": "31.09003740",
    "longitude": "99.31006960",
    "stateId": 2277,
    "stateCode": "SC",
    "countryCode": "CN"
  },
  {
    "id": 5,
    "name": "Baoxing",
    "latitude": "30.54476310",
    "longitude": "102.72205040",
    "stateId": 2277,
    "stateCode": "SC",
    "countryCode": "CN"
  },
  {
    "id": 6,
    "name": "Barkam",
    "latitude": "31.90059000",
    "longitude": "102.22092000",
    "stateId": 2277,
    "stateCode": "SC",
    "countryCode": "CN"
  },
  {
    "id": 7,
    "name": "Batang",
    "latitude": "29.87843670",
    "longitude": "99.23356860",
    "stateId": 2277,
    "stateCode": "SC",
    "countryCode": "CN"
  },
  {
    "id": 8,
    "name": "Bazhong",
    "latitude": "32.04024800",
    "longitude": "107.06230100",
    "stateId": 2277,
    "stateCode": "SC",
    "countryCode": "CN"
  },
  {
    "id": 9,
    "name": "Bazhou",
    "latitude": "31.81573110",
    "longitude": "106.87499860",
    "stateId": 2277,
    "stateCode": "SC",
    "countryCode": "CN"
  },
  {
    "id": 10,
    "name": "Beichuan",
    "latitude": "31.97191090",
    "longitude": "104.29346260",
    "stateId": 2277,
    "stateCode": "SC",
    "countryCode": "CN"
  },
  {
    "id": 11,
    "name": "Butuo",
    "latitude": "27.71228520",
    "longitude": "102.80907230",
    "stateId": 2277,
    "stateCode": "SC",
    "countryCode": "CN"
  },
  {
    "id": 12,
    "name": "Cangxi",
    "latitude": "31.93540900",
    "longitude": "106.16249750",
    "stateId": 2277,
    "stateCode": "SC",
    "countryCode": "CN"
  },
  {
    "id": 13,
    "name": "Changchi",
    "latitude": "32.16377000",
    "longitude": "106.65814000",
    "stateId": 2277,
    "stateCode": "SC",
    "countryCode": "CN"
  },
  {
    "id": 14,
    "name": "Changning",
    "latitude": "28.50950350",
    "longitude": "104.91814540",
    "stateId": 2277,
    "stateCode": "SC",
    "countryCode": "CN"
  },
  {
    "id": 15,
    "name": "Chaotian",
    "latitude": "32.66222560",
    "longitude": "105.97805420",
    "stateId": 2277,
    "stateCode": "SC",
    "countryCode": "CN"
  },
  {
    "id": 16,
    "name": "Chengdu",
    "latitude": "30.65986700",
    "longitude": "104.06331500",
    "stateId": 2277,
    "stateCode": "SC",
    "countryCode": "CN"
  },
  {
    "id": 17,
    "name": "Chenghua",
    "latitude": "30.66241730",
    "longitude": "104.09905300",
    "stateId": 2277,
    "stateCode": "SC",
    "countryCode": "CN"
  },
  {
    "id": 18,
    "name": "Chonglong",
    "latitude": "29.78062000",
    "longitude": "104.85224000",
    "stateId": 2277,
    "stateCode": "SC",
    "countryCode": "CN"
  },
  {
    "id": 19,
    "name": "Chongzhou",
    "latitude": "30.62560880",
    "longitude": "103.67224480",
    "stateId": 2277,
    "stateCode": "SC",
    "countryCode": "CN"
  },
  {
    "id": 20,
    "name": "Chuanshan",
    "latitude": "30.51471920",
    "longitude": "105.58987680",
    "stateId": 2277,
    "stateCode": "SC",
    "countryCode": "CN"
  },
  {
    "id": 21,
    "name": "Cuiping",
    "latitude": "28.88120620",
    "longitude": "104.66666150",
    "stateId": 2277,
    "stateCode": "SC",
    "countryCode": "CN"
  },
  {
    "id": 22,
    "name": "Da'an",
    "latitude": "29.36642970",
    "longitude": "104.77110370",
    "stateId": 2277,
    "stateCode": "SC",
    "countryCode": "CN"
  },
  {
    "id": 23,
    "name": "Dachuan",
    "latitude": "31.11630780",
    "longitude": "107.36630780",
    "stateId": 2277,
    "stateCode": "SC",
    "countryCode": "CN"
  },
  {
    "id": 24,
    "name": "Dadukou",
    "latitude": "26.54790000",
    "longitude": "101.70539000",
    "stateId": 2277,
    "stateCode": "SC",
    "countryCode": "CN"
  },
  {
    "id": 25,
    "name": "Danba",
    "latitude": "30.98792330",
    "longitude": "101.79573690",
    "stateId": 2277,
    "stateCode": "SC",
    "countryCode": "CN"
  },
  {
    "id": 26,
    "name": "Danleng",
    "latitude": "30.03496730",
    "longitude": "103.40781250",
    "stateId": 2277,
    "stateCode": "SC",
    "countryCode": "CN"
  },
  {
    "id": 27,
    "name": "Daocheng",
    "latitude": "28.87430670",
    "longitude": "100.23274190",
    "stateId": 2277,
    "stateCode": "SC",
    "countryCode": "CN"
  },
  {
    "id": 28,
    "name": "Daofu",
    "latitude": "30.92489440",
    "longitude": "101.15744190",
    "stateId": 2277,
    "stateCode": "SC",
    "countryCode": "CN"
  },
  {
    "id": 29,
    "name": "Dayi",
    "latitude": "30.59019650",
    "longitude": "103.52128740",
    "stateId": 2277,
    "stateCode": "SC",
    "countryCode": "CN"
  },
  {
    "id": 30,
    "name": "Daying",
    "latitude": "30.59732930",
    "longitude": "105.23358730",
    "stateId": 2277,
    "stateCode": "SC",
    "countryCode": "CN"
  },
  {
    "id": 31,
    "name": "Dazhou",
    "latitude": "31.34511500",
    "longitude": "107.65068300",
    "stateId": 2277,
    "stateCode": "SC",
    "countryCode": "CN"
  },
  {
    "id": 32,
    "name": "Dazhu",
    "latitude": "30.65501580",
    "longitude": "107.27877260",
    "stateId": 2277,
    "stateCode": "SC",
    "countryCode": "CN"
  },
  {
    "id": 33,
    "name": "Dechang",
    "latitude": "27.34323430",
    "longitude": "102.17258220",
    "stateId": 2277,
    "stateCode": "SC",
    "countryCode": "CN"
  },
  {
    "id": 34,
    "name": "Dege",
    "latitude": "32.06356910",
    "longitude": "99.01433700",
    "stateId": 2277,
    "stateCode": "SC",
    "countryCode": "CN"
  },
  {
    "id": 35,
    "name": "Derong",
    "latitude": "28.73408330",
    "longitude": "99.34400460",
    "stateId": 2277,
    "stateCode": "SC",
    "countryCode": "CN"
  },
  {
    "id": 36,
    "name": "Deyang",
    "latitude": "31.12440280",
    "longitude": "104.39013000",
    "stateId": 2277,
    "stateCode": "SC",
    "countryCode": "CN"
  },
  {
    "id": 37,
    "name": "Dongpo",
    "latitude": "30.05812610",
    "longitude": "103.72370070",
    "stateId": 2277,
    "stateCode": "SC",
    "countryCode": "CN"
  },
  {
    "id": 38,
    "name": "Dongqu",
    "latitude": "0.00000000",
    "longitude": "0.00000000",
    "stateId": 2277,
    "stateCode": "SC",
    "countryCode": "CN"
  },
  {
    "id": 39,
    "name": "Dongxi",
    "latitude": "32.06577000",
    "longitude": "106.24843000",
    "stateId": 2277,
    "stateCode": "SC",
    "countryCode": "CN"
  },
  {
    "id": 40,
    "name": "Dongxing",
    "latitude": "29.65997660",
    "longitude": "105.19218070",
    "stateId": 2277,
    "stateCode": "SC",
    "countryCode": "CN"
  },
  {
    "id": 41,
    "name": "Dujiangyan",
    "latitude": "30.99652540",
    "longitude": "103.61427230",
    "stateId": 2277,
    "stateCode": "SC",
    "countryCode": "CN"
  },
  {
    "id": 42,
    "name": "Ebian",
    "latitude": "29.05344450",
    "longitude": "103.18044620",
    "stateId": 2277,
    "stateCode": "SC",
    "countryCode": "CN"
  },
  {
    "id": 43,
    "name": "Emeishan",
    "latitude": "29.52266550",
    "longitude": "103.33686370",
    "stateId": 2277,
    "stateCode": "SC",
    "countryCode": "CN"
  },
  {
    "id": 44,
    "name": "Enyang",
    "latitude": "31.71006110",
    "longitude": "106.58935480",
    "stateId": 2277,
    "stateCode": "SC",
    "countryCode": "CN"
  },
  {
    "id": 45,
    "name": "Fangting",
    "latitude": "31.12766000",
    "longitude": "104.16649000",
    "stateId": 2277,
    "stateCode": "SC",
    "countryCode": "CN"
  },
  {
    "id": 46,
    "name": "Fubao",
    "latitude": "28.76905000",
    "longitude": "106.07667000",
    "stateId": 2277,
    "stateCode": "SC",
    "countryCode": "CN"
  },
  {
    "id": 47,
    "name": "Fucheng",
    "latitude": "31.41006720",
    "longitude": "104.69546370",
    "stateId": 2277,
    "stateCode": "SC",
    "countryCode": "CN"
  },
  {
    "id": 48,
    "name": "Fushun",
    "latitude": "29.12231980",
    "longitude": "105.04346040",
    "stateId": 2277,
    "stateCode": "SC",
    "countryCode": "CN"
  },
  {
    "id": 49,
    "name": "Ganluo",
    "latitude": "28.94975460",
    "longitude": "102.80489540",
    "stateId": 2277,
    "stateCode": "SC",
    "countryCode": "CN"
  },
  {
    "id": 50,
    "name": "Ganzi",
    "latitude": "30.05214960",
    "longitude": "101.96098390",
    "stateId": 2277,
    "stateCode": "SC",
    "countryCode": "CN"
  },
  {
    "id": 51,
    "name": "Gaoping",
    "latitude": "30.77576000",
    "longitude": "106.10294000",
    "stateId": 2277,
    "stateCode": "SC",
    "countryCode": "CN"
  },
  {
    "id": 52,
    "name": "Gaoping",
    "latitude": "30.79562720",
    "longitude": "106.25815650",
    "stateId": 2277,
    "stateCode": "SC",
    "countryCode": "CN"
  },
  {
    "id": 53,
    "name": "Gaoxian",
    "latitude": "28.46989970",
    "longitude": "104.57473620",
    "stateId": 2277,
    "stateCode": "SC",
    "countryCode": "CN"
  },
  {
    "id": 54,
    "name": "Garzê",
    "latitude": "30.05214960",
    "longitude": "101.96098390",
    "stateId": 2277,
    "stateCode": "SC",
    "countryCode": "CN"
  },
  {
    "id": 55,
    "name": "Gongjing",
    "latitude": "29.30429440",
    "longitude": "104.59674790",
    "stateId": 2277,
    "stateCode": "SC",
    "countryCode": "CN"
  },
  {
    "id": 56,
    "name": "Gongxian",
    "latitude": "28.20127510",
    "longitude": "104.76535530",
    "stateId": 2277,
    "stateCode": "SC",
    "countryCode": "CN"
  },
  {
    "id": 57,
    "name": "Guang'an",
    "latitude": "30.45930510",
    "longitude": "106.62866460",
    "stateId": 2277,
    "stateCode": "SC",
    "countryCode": "CN"
  },
  {
    "id": 58,
    "name": "Guang’an",
    "latitude": "30.47413000",
    "longitude": "106.63696000",
    "stateId": 2277,
    "stateCode": "SC",
    "countryCode": "CN"
  },
  {
    "id": 59,
    "name": "Guanghan",
    "latitude": "30.98180130",
    "longitude": "104.27255460",
    "stateId": 2277,
    "stateCode": "SC",
    "countryCode": "CN"
  },
  {
    "id": 60,
    "name": "Guangyuan",
    "latitude": "32.26855780",
    "longitude": "105.83953580",
    "stateId": 2277,
    "stateCode": "SC",
    "countryCode": "CN"
  },
  {
    "id": 61,
    "name": "Gulin",
    "latitude": "27.96715960",
    "longitude": "105.93061920",
    "stateId": 2277,
    "stateCode": "SC",
    "countryCode": "CN"
  },
  {
    "id": 62,
    "name": "Hanyuan",
    "latitude": "29.43636660",
    "longitude": "102.64078360",
    "stateId": 2277,
    "stateCode": "SC",
    "countryCode": "CN"
  },
  {
    "id": 63,
    "name": "Heishui",
    "latitude": "32.19053780",
    "longitude": "103.08484800",
    "stateId": 2277,
    "stateCode": "SC",
    "countryCode": "CN"
  },
  {
    "id": 64,
    "name": "Hejiang",
    "latitude": "28.80580490",
    "longitude": "105.90499290",
    "stateId": 2277,
    "stateCode": "SC",
    "countryCode": "CN"
  },
  {
    "id": 65,
    "name": "Hongya",
    "latitude": "29.69635380",
    "longitude": "103.18295650",
    "stateId": 2277,
    "stateCode": "SC",
    "countryCode": "CN"
  },
  {
    "id": 66,
    "name": "Hongyuan",
    "latitude": "32.77647300",
    "longitude": "102.65260400",
    "stateId": 2277,
    "stateCode": "SC",
    "countryCode": "CN"
  },
  {
    "id": 67,
    "name": "Huaying",
    "latitude": "30.33233470",
    "longitude": "106.75724840",
    "stateId": 2277,
    "stateCode": "SC",
    "countryCode": "CN"
  },
  {
    "id": 68,
    "name": "Huidong",
    "latitude": "26.63843860",
    "longitude": "102.57684540",
    "stateId": 2277,
    "stateCode": "SC",
    "countryCode": "CN"
  },
  {
    "id": 69,
    "name": "Huili",
    "latitude": "26.66001720",
    "longitude": "102.24387320",
    "stateId": 2277,
    "stateCode": "SC",
    "countryCode": "CN"
  },
  {
    "id": 70,
    "name": "Jiajiang",
    "latitude": "29.77612150",
    "longitude": "103.56145730",
    "stateId": 2277,
    "stateCode": "SC",
    "countryCode": "CN"
  },
  {
    "id": 71,
    "name": "Jialing",
    "latitude": "30.70666760",
    "longitude": "105.94399040",
    "stateId": 2277,
    "stateCode": "SC",
    "countryCode": "CN"
  },
  {
    "id": 72,
    "name": "Jiancheng",
    "latitude": "30.39097000",
    "longitude": "104.54912000",
    "stateId": 2277,
    "stateCode": "SC",
    "countryCode": "CN"
  },
  {
    "id": 73,
    "name": "Jiang'an",
    "latitude": "28.69018820",
    "longitude": "105.10616810",
    "stateId": 2277,
    "stateCode": "SC",
    "countryCode": "CN"
  },
  {
    "id": 74,
    "name": "Jiange",
    "latitude": "31.90904000",
    "longitude": "105.50170760",
    "stateId": 2277,
    "stateCode": "SC",
    "countryCode": "CN"
  },
  {
    "id": 75,
    "name": "Jiangyang",
    "latitude": "28.85407110",
    "longitude": "105.41845300",
    "stateId": 2277,
    "stateCode": "SC",
    "countryCode": "CN"
  },
  {
    "id": 76,
    "name": "Jiangyou",
    "latitude": "31.76667000",
    "longitude": "104.71667000",
    "stateId": 2277,
    "stateCode": "SC",
    "countryCode": "CN"
  },
  {
    "id": 77,
    "name": "Jiangyou",
    "latitude": "31.95254950",
    "longitude": "104.93472050",
    "stateId": 2277,
    "stateCode": "SC",
    "countryCode": "CN"
  },
  {
    "id": 78,
    "name": "Jiannan",
    "latitude": "31.34355000",
    "longitude": "104.19588000",
    "stateId": 2277,
    "stateCode": "SC",
    "countryCode": "CN"
  },
  {
    "id": 79,
    "name": "Jianyang",
    "latitude": "30.39155440",
    "longitude": "104.55321070",
    "stateId": 2277,
    "stateCode": "SC",
    "countryCode": "CN"
  },
  {
    "id": 80,
    "name": "Jinchuan",
    "latitude": "31.53659390",
    "longitude": "101.80983260",
    "stateId": 2277,
    "stateCode": "SC",
    "countryCode": "CN"
  },
  {
    "id": 81,
    "name": "Jingyan",
    "latitude": "29.62602340",
    "longitude": "104.05706480",
    "stateId": 2277,
    "stateCode": "SC",
    "countryCode": "CN"
  },
  {
    "id": 82,
    "name": "Jingyang",
    "latitude": "31.14042110",
    "longitude": "104.39223580",
    "stateId": 2277,
    "stateCode": "SC",
    "countryCode": "CN"
  },
  {
    "id": 83,
    "name": "Jinjiang",
    "latitude": "30.60134390",
    "longitude": "104.11438060",
    "stateId": 2277,
    "stateCode": "SC",
    "countryCode": "CN"
  },
  {
    "id": 84,
    "name": "Jinkouhe",
    "latitude": "29.28152770",
    "longitude": "103.07194820",
    "stateId": 2277,
    "stateCode": "SC",
    "countryCode": "CN"
  },
  {
    "id": 85,
    "name": "Jinniu",
    "latitude": "30.69368090",
    "longitude": "104.04895730",
    "stateId": 2277,
    "stateCode": "SC",
    "countryCode": "CN"
  },
  {
    "id": 86,
    "name": "Jintang",
    "latitude": "30.73509280",
    "longitude": "104.61581950",
    "stateId": 2277,
    "stateCode": "SC",
    "countryCode": "CN"
  },
  {
    "id": 87,
    "name": "Jinyang",
    "latitude": "27.69921970",
    "longitude": "103.24928120",
    "stateId": 2277,
    "stateCode": "SC",
    "countryCode": "CN"
  },
  {
    "id": 88,
    "name": "Jiulong",
    "latitude": "28.89245160",
    "longitude": "101.63431790",
    "stateId": 2277,
    "stateCode": "SC",
    "countryCode": "CN"
  },
  {
    "id": 89,
    "name": "Jiuzhaigou",
    "latitude": "33.30715970",
    "longitude": "103.93259930",
    "stateId": 2277,
    "stateCode": "SC",
    "countryCode": "CN"
  },
  {
    "id": 90,
    "name": "Junlian",
    "latitude": "28.04287010",
    "longitude": "104.60850550",
    "stateId": 2277,
    "stateCode": "SC",
    "countryCode": "CN"
  },
  {
    "id": 91,
    "name": "Kaijiang",
    "latitude": "31.04617630",
    "longitude": "107.88976930",
    "stateId": 2277,
    "stateCode": "SC",
    "countryCode": "CN"
  },
  {
    "id": 92,
    "name": "Kangding",
    "latitude": "30.00222000",
    "longitude": "101.95690000",
    "stateId": 2277,
    "stateCode": "SC",
    "countryCode": "CN"
  },
  {
    "id": 93,
    "name": "Kangding",
    "latitude": "30.00025580",
    "longitude": "101.95455810",
    "stateId": 2277,
    "stateCode": "SC",
    "countryCode": "CN"
  },
  {
    "id": 94,
    "name": "Langzhong",
    "latitude": "31.55037000",
    "longitude": "105.99381000",
    "stateId": 2277,
    "stateCode": "SC",
    "countryCode": "CN"
  },
  {
    "id": 95,
    "name": "Langzhong",
    "latitude": "31.58995650",
    "longitude": "106.08128140",
    "stateId": 2277,
    "stateCode": "SC",
    "countryCode": "CN"
  },
  {
    "id": 96,
    "name": "Leibo",
    "latitude": "28.27854260",
    "longitude": "103.47325640",
    "stateId": 2277,
    "stateCode": "SC",
    "countryCode": "CN"
  },
  {
    "id": 97,
    "name": "Leshan",
    "latitude": "29.22334950",
    "longitude": "103.59660830",
    "stateId": 2277,
    "stateCode": "SC",
    "countryCode": "CN"
  },
  {
    "id": 98,
    "name": "Lezhi",
    "latitude": "30.31219510",
    "longitude": "105.02674690",
    "stateId": 2277,
    "stateCode": "SC",
    "countryCode": "CN"
  },
  {
    "id": 99,
    "name": "Liangshan",
    "latitude": "27.88498140",
    "longitude": "102.26573950",
    "stateId": 2277,
    "stateCode": "SC",
    "countryCode": "CN"
  },
  {
    "id": 100,
    "name": "Linqiong",
    "latitude": "30.41587000",
    "longitude": "103.46089000",
    "stateId": 2277,
    "stateCode": "SC",
    "countryCode": "CN"
  },
  {
    "id": 101,
    "name": "Linshui",
    "latitude": "30.25260400",
    "longitude": "106.98204100",
    "stateId": 2277,
    "stateCode": "SC",
    "countryCode": "CN"
  },
  {
    "id": 102,
    "name": "Litang",
    "latitude": "29.84542630",
    "longitude": "100.27772800",
    "stateId": 2277,
    "stateCode": "SC",
    "countryCode": "CN"
  },
  {
    "id": 103,
    "name": "Lixian",
    "latitude": "31.58802700",
    "longitude": "103.02104400",
    "stateId": 2277,
    "stateCode": "SC",
    "countryCode": "CN"
  },
  {
    "id": 104,
    "name": "Lizhou",
    "latitude": "32.43220740",
    "longitude": "105.77347080",
    "stateId": 2277,
    "stateCode": "SC",
    "countryCode": "CN"
  },
  {
    "id": 105,
    "name": "Longchang",
    "latitude": "29.36655650",
    "longitude": "105.25842890",
    "stateId": 2277,
    "stateCode": "SC",
    "countryCode": "CN"
  },
  {
    "id": 106,
    "name": "Longmatan",
    "latitude": "28.97030180",
    "longitude": "105.44952360",
    "stateId": 2277,
    "stateCode": "SC",
    "countryCode": "CN"
  },
  {
    "id": 107,
    "name": "Longquanyi",
    "latitude": "30.59370380",
    "longitude": "104.30849010",
    "stateId": 2277,
    "stateCode": "SC",
    "countryCode": "CN"
  },
  {
    "id": 108,
    "name": "Luding",
    "latitude": "29.76298360",
    "longitude": "102.14191660",
    "stateId": 2277,
    "stateCode": "SC",
    "countryCode": "CN"
  },
  {
    "id": 109,
    "name": "Luhuo",
    "latitude": "31.49323750",
    "longitude": "100.73619700",
    "stateId": 2277,
    "stateCode": "SC",
    "countryCode": "CN"
  },
  {
    "id": 110,
    "name": "Luocheng",
    "latitude": "30.98021000",
    "longitude": "104.28081000",
    "stateId": 2277,
    "stateCode": "SC",
    "countryCode": "CN"
  },
  {
    "id": 111,
    "name": "Luojiang",
    "latitude": "31.30704000",
    "longitude": "104.50351320",
    "stateId": 2277,
    "stateCode": "SC",
    "countryCode": "CN"
  },
  {
    "id": 112,
    "name": "Lushan",
    "latitude": "30.42599100",
    "longitude": "103.00979020",
    "stateId": 2277,
    "stateCode": "SC",
    "countryCode": "CN"
  },
  {
    "id": 113,
    "name": "Luxian",
    "latitude": "29.15262160",
    "longitude": "105.48770600",
    "stateId": 2277,
    "stateCode": "SC",
    "countryCode": "CN"
  },
  {
    "id": 114,
    "name": "Luzhou",
    "latitude": "28.52978990",
    "longitude": "105.53827250",
    "stateId": 2277,
    "stateCode": "SC",
    "countryCode": "CN"
  },
  {
    "id": 115,
    "name": "Ma'erkang",
    "latitude": "32.10168820",
    "longitude": "102.00905210",
    "stateId": 2277,
    "stateCode": "SC",
    "countryCode": "CN"
  },
  {
    "id": 116,
    "name": "Mabian",
    "latitude": "28.80323730",
    "longitude": "103.50768450",
    "stateId": 2277,
    "stateCode": "SC",
    "countryCode": "CN"
  },
  {
    "id": 117,
    "name": "Maoxian",
    "latitude": "31.68350610",
    "longitude": "103.85070780",
    "stateId": 2277,
    "stateCode": "SC",
    "countryCode": "CN"
  },
  {
    "id": 118,
    "name": "Meigu",
    "latitude": "28.43663850",
    "longitude": "103.07663570",
    "stateId": 2277,
    "stateCode": "SC",
    "countryCode": "CN"
  },
  {
    "id": 119,
    "name": "Meishan",
    "latitude": "29.98668380",
    "longitude": "103.77900090",
    "stateId": 2277,
    "stateCode": "SC",
    "countryCode": "CN"
  },
  {
    "id": 120,
    "name": "Mianning",
    "latitude": "28.55146470",
    "longitude": "102.17012950",
    "stateId": 2277,
    "stateCode": "SC",
    "countryCode": "CN"
  },
  {
    "id": 121,
    "name": "Mianyang",
    "latitude": "31.46027140",
    "longitude": "104.71607230",
    "stateId": 2277,
    "stateCode": "SC",
    "countryCode": "CN"
  },
  {
    "id": 122,
    "name": "Mianzhu",
    "latitude": "31.41784320",
    "longitude": "104.17258520",
    "stateId": 2277,
    "stateCode": "SC",
    "countryCode": "CN"
  },
  {
    "id": 123,
    "name": "Mingshan",
    "latitude": "30.11963800",
    "longitude": "103.21736400",
    "stateId": 2277,
    "stateCode": "SC",
    "countryCode": "CN"
  },
  {
    "id": 124,
    "name": "Miyi",
    "latitude": "26.96898310",
    "longitude": "101.80975220",
    "stateId": 2277,
    "stateCode": "SC",
    "countryCode": "CN"
  },
  {
    "id": 125,
    "name": "Muchuan",
    "latitude": "29.01961000",
    "longitude": "103.80666690",
    "stateId": 2277,
    "stateCode": "SC",
    "countryCode": "CN"
  },
  {
    "id": 126,
    "name": "Muli",
    "latitude": "27.92918940",
    "longitude": "101.27870730",
    "stateId": 2277,
    "stateCode": "SC",
    "countryCode": "CN"
  },
  {
    "id": 127,
    "name": "Nanbu",
    "latitude": "31.31692760",
    "longitude": "105.90752330",
    "stateId": 2277,
    "stateCode": "SC",
    "countryCode": "CN"
  },
  {
    "id": 128,
    "name": "Nanchong",
    "latitude": "31.21021900",
    "longitude": "106.23173500",
    "stateId": 2277,
    "stateCode": "SC",
    "countryCode": "CN"
  },
  {
    "id": 129,
    "name": "Nanjiang",
    "latitude": "32.30813940",
    "longitude": "106.83942390",
    "stateId": 2277,
    "stateCode": "SC",
    "countryCode": "CN"
  },
  {
    "id": 130,
    "name": "Nanlong",
    "latitude": "31.35333000",
    "longitude": "106.06309000",
    "stateId": 2277,
    "stateCode": "SC",
    "countryCode": "CN"
  },
  {
    "id": 131,
    "name": "Nanxi",
    "latitude": "28.89217830",
    "longitude": "104.95350770",
    "stateId": 2277,
    "stateCode": "SC",
    "countryCode": "CN"
  },
  {
    "id": 132,
    "name": "Naxi",
    "latitude": "28.65896020",
    "longitude": "105.38635220",
    "stateId": 2277,
    "stateCode": "SC",
    "countryCode": "CN"
  },
  {
    "id": 133,
    "name": "Neijiang",
    "latitude": "29.66022020",
    "longitude": "104.91928060",
    "stateId": 2277,
    "stateCode": "SC",
    "countryCode": "CN"
  },
  {
    "id": 134,
    "name": "Ngawa",
    "latitude": "31.90156940",
    "longitude": "102.22292370",
    "stateId": 2277,
    "stateCode": "SC",
    "countryCode": "CN"
  },
  {
    "id": 135,
    "name": "Ningnan",
    "latitude": "27.06403700",
    "longitude": "102.74924760",
    "stateId": 2277,
    "stateCode": "SC",
    "countryCode": "CN"
  },
  {
    "id": 136,
    "name": "Panzhihua",
    "latitude": "26.58601020",
    "longitude": "101.71792760",
    "stateId": 2277,
    "stateCode": "SC",
    "countryCode": "CN"
  },
  {
    "id": 137,
    "name": "Peng'an",
    "latitude": "30.98708550",
    "longitude": "106.44290270",
    "stateId": 2277,
    "stateCode": "SC",
    "countryCode": "CN"
  },
  {
    "id": 138,
    "name": "Pengshan",
    "latitude": "30.25131070",
    "longitude": "103.84901190",
    "stateId": 2277,
    "stateCode": "SC",
    "countryCode": "CN"
  },
  {
    "id": 139,
    "name": "Pengxi",
    "latitude": "30.65124980",
    "longitude": "105.73899790",
    "stateId": 2277,
    "stateCode": "SC",
    "countryCode": "CN"
  },
  {
    "id": 140,
    "name": "Pengzhou",
    "latitude": "31.11408000",
    "longitude": "103.92189300",
    "stateId": 2277,
    "stateCode": "SC",
    "countryCode": "CN"
  },
  {
    "id": 141,
    "name": "Pidu",
    "latitude": "30.79801070",
    "longitude": "103.89861340",
    "stateId": 2277,
    "stateCode": "SC",
    "countryCode": "CN"
  },
  {
    "id": 142,
    "name": "Pingchang",
    "latitude": "31.61227170",
    "longitude": "107.17768340",
    "stateId": 2277,
    "stateCode": "SC",
    "countryCode": "CN"
  },
  {
    "id": 143,
    "name": "Pingshan",
    "latitude": "28.69747430",
    "longitude": "104.05080810",
    "stateId": 2277,
    "stateCode": "SC",
    "countryCode": "CN"
  },
  {
    "id": 144,
    "name": "Pingwu",
    "latitude": "32.46046990",
    "longitude": "104.45152330",
    "stateId": 2277,
    "stateCode": "SC",
    "countryCode": "CN"
  },
  {
    "id": 145,
    "name": "Puge",
    "latitude": "27.59382180",
    "longitude": "102.56303170",
    "stateId": 2277,
    "stateCode": "SC",
    "countryCode": "CN"
  },
  {
    "id": 146,
    "name": "Puji",
    "latitude": "32.23908000",
    "longitude": "106.45478000",
    "stateId": 2277,
    "stateCode": "SC",
    "countryCode": "CN"
  },
  {
    "id": 147,
    "name": "Pujiang",
    "latitude": "30.20078360",
    "longitude": "103.51960320",
    "stateId": 2277,
    "stateCode": "SC",
    "countryCode": "CN"
  },
  {
    "id": 148,
    "name": "Qianfeng",
    "latitude": "30.53842390",
    "longitude": "106.86151090",
    "stateId": 2277,
    "stateCode": "SC",
    "countryCode": "CN"
  },
  {
    "id": 149,
    "name": "Qianwei",
    "latitude": "29.21131350",
    "longitude": "103.94367130",
    "stateId": 2277,
    "stateCode": "SC",
    "countryCode": "CN"
  },
  {
    "id": 150,
    "name": "Qingbaijiang",
    "latitude": "30.79021710",
    "longitude": "104.32960440",
    "stateId": 2277,
    "stateCode": "SC",
    "countryCode": "CN"
  },
  {
    "id": 151,
    "name": "Qingchuan",
    "latitude": "32.51593260",
    "longitude": "105.22683820",
    "stateId": 2277,
    "stateCode": "SC",
    "countryCode": "CN"
  },
  {
    "id": 152,
    "name": "Qingshen",
    "latitude": "29.83274420",
    "longitude": "103.84339720",
    "stateId": 2277,
    "stateCode": "SC",
    "countryCode": "CN"
  },
  {
    "id": 153,
    "name": "Qingyang",
    "latitude": "30.67686600",
    "longitude": "104.06009130",
    "stateId": 2277,
    "stateCode": "SC",
    "countryCode": "CN"
  },
  {
    "id": 154,
    "name": "Qionglai",
    "latitude": "30.41452050",
    "longitude": "103.46544110",
    "stateId": 2277,
    "stateCode": "SC",
    "countryCode": "CN"
  },
  {
    "id": 155,
    "name": "Quxian",
    "latitude": "30.96734880",
    "longitude": "107.00623200",
    "stateId": 2277,
    "stateCode": "SC",
    "countryCode": "CN"
  },
  {
    "id": 156,
    "name": "Rangtang",
    "latitude": "32.34599570",
    "longitude": "101.18451120",
    "stateId": 2277,
    "stateCode": "SC",
    "countryCode": "CN"
  },
  {
    "id": 157,
    "name": "Renhe",
    "latitude": "26.44833670",
    "longitude": "101.78934150",
    "stateId": 2277,
    "stateCode": "SC",
    "countryCode": "CN"
  },
  {
    "id": 158,
    "name": "Renshou",
    "latitude": "29.98110890",
    "longitude": "104.22042710",
    "stateId": 2277,
    "stateCode": "SC",
    "countryCode": "CN"
  },
  {
    "id": 159,
    "name": "Rongxian",
    "latitude": "29.44573900",
    "longitude": "104.41476220",
    "stateId": 2277,
    "stateCode": "SC",
    "countryCode": "CN"
  },
  {
    "id": 160,
    "name": "Ruo'ergai",
    "latitude": "33.57590020",
    "longitude": "102.96402490",
    "stateId": 2277,
    "stateCode": "SC",
    "countryCode": "CN"
  },
  {
    "id": 161,
    "name": "Santai",
    "latitude": "31.11961210",
    "longitude": "105.02253980",
    "stateId": 2277,
    "stateCode": "SC",
    "countryCode": "CN"
  },
  {
    "id": 162,
    "name": "Seda",
    "latitude": "28.80254460",
    "longitude": "102.85831690",
    "stateId": 2277,
    "stateCode": "SC",
    "countryCode": "CN"
  },
  {
    "id": 163,
    "name": "Shawan",
    "latitude": "29.35464920",
    "longitude": "103.59626700",
    "stateId": 2277,
    "stateCode": "SC",
    "countryCode": "CN"
  },
  {
    "id": 164,
    "name": "Shehong",
    "latitude": "30.87324610",
    "longitude": "105.38457330",
    "stateId": 2277,
    "stateCode": "SC",
    "countryCode": "CN"
  },
  {
    "id": 165,
    "name": "Shifang",
    "latitude": "31.25390140",
    "longitude": "104.00482040",
    "stateId": 2277,
    "stateCode": "SC",
    "countryCode": "CN"
  },
  {
    "id": 166,
    "name": "Shimian",
    "latitude": "29.23086170",
    "longitude": "102.35672960",
    "stateId": 2277,
    "stateCode": "SC",
    "countryCode": "CN"
  },
  {
    "id": 167,
    "name": "Shiqu",
    "latitude": "32.97650390",
    "longitude": "98.09772680",
    "stateId": 2277,
    "stateCode": "SC",
    "countryCode": "CN"
  },
  {
    "id": 168,
    "name": "Shizhong",
    "latitude": "29.55005250",
    "longitude": "104.95868430",
    "stateId": 2277,
    "stateCode": "SC",
    "countryCode": "CN"
  },
  {
    "id": 169,
    "name": "Shuanghejiedao",
    "latitude": "30.37448000",
    "longitude": "106.77266000",
    "stateId": 2277,
    "stateCode": "SC",
    "countryCode": "CN"
  },
  {
    "id": 170,
    "name": "Shuangliu",
    "latitude": "30.57753860",
    "longitude": "103.92125320",
    "stateId": 2277,
    "stateCode": "SC",
    "countryCode": "CN"
  },
  {
    "id": 171,
    "name": "Shunqing",
    "latitude": "30.94577930",
    "longitude": "106.10116380",
    "stateId": 2277,
    "stateCode": "SC",
    "countryCode": "CN"
  },
  {
    "id": 172,
    "name": "Songpan",
    "latitude": "32.57323180",
    "longitude": "103.59731300",
    "stateId": 2277,
    "stateCode": "SC",
    "countryCode": "CN"
  },
  {
    "id": 173,
    "name": "Suining",
    "latitude": "30.50614930",
    "longitude": "105.57454200",
    "stateId": 2277,
    "stateCode": "SC",
    "countryCode": "CN"
  },
  {
    "id": 174,
    "name": "Taihe",
    "latitude": "30.87123000",
    "longitude": "105.38454000",
    "stateId": 2277,
    "stateCode": "SC",
    "countryCode": "CN"
  },
  {
    "id": 175,
    "name": "Taiping",
    "latitude": "28.14083000",
    "longitude": "106.03771000",
    "stateId": 2277,
    "stateCode": "SC",
    "countryCode": "CN"
  },
  {
    "id": 176,
    "name": "Tianpeng",
    "latitude": "30.98664000",
    "longitude": "103.93933000",
    "stateId": 2277,
    "stateCode": "SC",
    "countryCode": "CN"
  },
  {
    "id": 177,
    "name": "Tianquan",
    "latitude": "30.08619100",
    "longitude": "102.59264100",
    "stateId": 2277,
    "stateCode": "SC",
    "countryCode": "CN"
  },
  {
    "id": 178,
    "name": "Tongchuan",
    "latitude": "31.09407000",
    "longitude": "105.08731000",
    "stateId": 2277,
    "stateCode": "SC",
    "countryCode": "CN"
  },
  {
    "id": 179,
    "name": "Tongchuan",
    "latitude": "31.36067380",
    "longitude": "107.44697500",
    "stateId": 2277,
    "stateCode": "SC",
    "countryCode": "CN"
  },
  {
    "id": 180,
    "name": "Tongjiang",
    "latitude": "32.11980340",
    "longitude": "107.37212860",
    "stateId": 2277,
    "stateCode": "SC",
    "countryCode": "CN"
  },
  {
    "id": 181,
    "name": "Wangcang",
    "latitude": "32.38543270",
    "longitude": "106.35883620",
    "stateId": 2277,
    "stateCode": "SC",
    "countryCode": "CN"
  },
  {
    "id": 182,
    "name": "Wanyuan",
    "latitude": "31.99363170",
    "longitude": "108.01379620",
    "stateId": 2277,
    "stateCode": "SC",
    "countryCode": "CN"
  },
  {
    "id": 183,
    "name": "Weiyuan",
    "latitude": "29.59249300",
    "longitude": "104.60260400",
    "stateId": 2277,
    "stateCode": "SC",
    "countryCode": "CN"
  },
  {
    "id": 184,
    "name": "Wenchuan",
    "latitude": "31.20170940",
    "longitude": "103.33547650",
    "stateId": 2277,
    "stateCode": "SC",
    "countryCode": "CN"
  },
  {
    "id": 185,
    "name": "Wenjiang",
    "latitude": "30.70524680",
    "longitude": "103.82946890",
    "stateId": 2277,
    "stateCode": "SC",
    "countryCode": "CN"
  },
  {
    "id": 186,
    "name": "Wuhou",
    "latitude": "30.64421310",
    "longitude": "104.04066830",
    "stateId": 2277,
    "stateCode": "SC",
    "countryCode": "CN"
  },
  {
    "id": 187,
    "name": "Wusheng",
    "latitude": "30.37000500",
    "longitude": "106.22541950",
    "stateId": 2277,
    "stateCode": "SC",
    "countryCode": "CN"
  },
  {
    "id": 188,
    "name": "Wutongqiao",
    "latitude": "29.40834030",
    "longitude": "103.81520440",
    "stateId": 2277,
    "stateCode": "SC",
    "countryCode": "CN"
  },
  {
    "id": 189,
    "name": "Xialiang",
    "latitude": "32.07673000",
    "longitude": "106.77151000",
    "stateId": 2277,
    "stateCode": "SC",
    "countryCode": "CN"
  },
  {
    "id": 190,
    "name": "Xiangcheng",
    "latitude": "29.11094260",
    "longitude": "99.74486180",
    "stateId": 2277,
    "stateCode": "SC",
    "countryCode": "CN"
  },
  {
    "id": 191,
    "name": "Xiantan",
    "latitude": "28.81859000",
    "longitude": "106.19270000",
    "stateId": 2277,
    "stateCode": "SC",
    "countryCode": "CN"
  },
  {
    "id": 192,
    "name": "Xiaojin",
    "latitude": "31.16742970",
    "longitude": "102.50401730",
    "stateId": 2277,
    "stateCode": "SC",
    "countryCode": "CN"
  },
  {
    "id": 193,
    "name": "Xichang",
    "latitude": "27.84589930",
    "longitude": "102.12422400",
    "stateId": 2277,
    "stateCode": "SC",
    "countryCode": "CN"
  },
  {
    "id": 194,
    "name": "Xichang",
    "latitude": "27.89642000",
    "longitude": "102.26341000",
    "stateId": 2277,
    "stateCode": "SC",
    "countryCode": "CN"
  },
  {
    "id": 195,
    "name": "Xichong",
    "latitude": "31.05889580",
    "longitude": "105.85619840",
    "stateId": 2277,
    "stateCode": "SC",
    "countryCode": "CN"
  },
  {
    "id": 196,
    "name": "Xide",
    "latitude": "28.30890180",
    "longitude": "102.41200490",
    "stateId": 2277,
    "stateCode": "SC",
    "countryCode": "CN"
  },
  {
    "id": 197,
    "name": "Xindu",
    "latitude": "30.82302630",
    "longitude": "104.17566420",
    "stateId": 2277,
    "stateCode": "SC",
    "countryCode": "CN"
  },
  {
    "id": 198,
    "name": "Xingwen",
    "latitude": "28.24471000",
    "longitude": "105.13638400",
    "stateId": 2277,
    "stateCode": "SC",
    "countryCode": "CN"
  },
  {
    "id": 199,
    "name": "Xinjin",
    "latitude": "30.41573450",
    "longitude": "103.80685840",
    "stateId": 2277,
    "stateCode": "SC",
    "countryCode": "CN"
  },
  {
    "id": 200,
    "name": "Xinlong",
    "latitude": "31.00207680",
    "longitude": "100.26457830",
    "stateId": 2277,
    "stateCode": "SC",
    "countryCode": "CN"
  },
  {
    "id": 201,
    "name": "Xiqu",
    "latitude": "26.60310690",
    "longitude": "101.62832000",
    "stateId": 2277,
    "stateCode": "SC",
    "countryCode": "CN"
  },
  {
    "id": 202,
    "name": "Xuanhan",
    "latitude": "31.51636200",
    "longitude": "107.88502100",
    "stateId": 2277,
    "stateCode": "SC",
    "countryCode": "CN"
  },
  {
    "id": 203,
    "name": "Xunchang",
    "latitude": "28.45433000",
    "longitude": "104.71498000",
    "stateId": 2277,
    "stateCode": "SC",
    "countryCode": "CN"
  },
  {
    "id": 204,
    "name": "Xuyong",
    "latitude": "28.10265000",
    "longitude": "105.43281000",
    "stateId": 2277,
    "stateCode": "SC",
    "countryCode": "CN"
  },
  {
    "id": 205,
    "name": "Xuzhou",
    "latitude": "28.58689000",
    "longitude": "104.71866100",
    "stateId": 2277,
    "stateCode": "SC",
    "countryCode": "CN"
  },
  {
    "id": 206,
    "name": "Ya'an",
    "latitude": "29.89311840",
    "longitude": "102.74165080",
    "stateId": 2277,
    "stateCode": "SC",
    "countryCode": "CN"
  },
  {
    "id": 207,
    "name": "Yajiang",
    "latitude": "29.92186900",
    "longitude": "101.00280700",
    "stateId": 2277,
    "stateCode": "SC",
    "countryCode": "CN"
  },
  {
    "id": 208,
    "name": "Yanbian",
    "latitude": "26.83317820",
    "longitude": "101.63803470",
    "stateId": 2277,
    "stateCode": "SC",
    "countryCode": "CN"
  },
  {
    "id": 209,
    "name": "Yanjiang",
    "latitude": "30.12108000",
    "longitude": "104.64811000",
    "stateId": 2277,
    "stateCode": "SC",
    "countryCode": "CN"
  },
  {
    "id": 210,
    "name": "Yanjiang",
    "latitude": "30.09999070",
    "longitude": "104.76699690",
    "stateId": 2277,
    "stateCode": "SC",
    "countryCode": "CN"
  },
  {
    "id": 211,
    "name": "Yantan",
    "latitude": "29.25663820",
    "longitude": "104.83741100",
    "stateId": 2277,
    "stateCode": "SC",
    "countryCode": "CN"
  },
  {
    "id": 212,
    "name": "Yanting",
    "latitude": "31.25347600",
    "longitude": "105.47050250",
    "stateId": 2277,
    "stateCode": "SC",
    "countryCode": "CN"
  },
  {
    "id": 213,
    "name": "Yanyuan",
    "latitude": "27.63077770",
    "longitude": "101.44814970",
    "stateId": 2277,
    "stateCode": "SC",
    "countryCode": "CN"
  },
  {
    "id": 214,
    "name": "Yibin",
    "latitude": "28.58689000",
    "longitude": "104.71866100",
    "stateId": 2277,
    "stateCode": "SC",
    "countryCode": "CN"
  },
  {
    "id": 215,
    "name": "Yilong",
    "latitude": "31.41957650",
    "longitude": "106.50786640",
    "stateId": 2277,
    "stateCode": "SC",
    "countryCode": "CN"
  },
  {
    "id": 216,
    "name": "Yingjing",
    "latitude": "29.75622130",
    "longitude": "102.68461320",
    "stateId": 2277,
    "stateCode": "SC",
    "countryCode": "CN"
  },
  {
    "id": 217,
    "name": "Yingshan",
    "latitude": "31.14249300",
    "longitude": "106.70264000",
    "stateId": 2277,
    "stateCode": "SC",
    "countryCode": "CN"
  },
  {
    "id": 218,
    "name": "Youxian",
    "latitude": "31.53346160",
    "longitude": "104.91568820",
    "stateId": 2277,
    "stateCode": "SC",
    "countryCode": "CN"
  },
  {
    "id": 219,
    "name": "Yucheng",
    "latitude": "29.98521000",
    "longitude": "102.99900000",
    "stateId": 2277,
    "stateCode": "SC",
    "countryCode": "CN"
  },
  {
    "id": 220,
    "name": "Yucheng",
    "latitude": "29.98837610",
    "longitude": "102.99419550",
    "stateId": 2277,
    "stateCode": "SC",
    "countryCode": "CN"
  },
  {
    "id": 221,
    "name": "Yuechi",
    "latitude": "30.51470910",
    "longitude": "106.44901190",
    "stateId": 2277,
    "stateCode": "SC",
    "countryCode": "CN"
  },
  {
    "id": 222,
    "name": "Yuexi",
    "latitude": "28.64542920",
    "longitude": "102.50420190",
    "stateId": 2277,
    "stateCode": "SC",
    "countryCode": "CN"
  },
  {
    "id": 223,
    "name": "Zengjia",
    "latitude": "32.61957000",
    "longitude": "106.10118000",
    "stateId": 2277,
    "stateCode": "SC",
    "countryCode": "CN"
  },
  {
    "id": 224,
    "name": "Zhaohua",
    "latitude": "32.16288360",
    "longitude": "105.84307790",
    "stateId": 2277,
    "stateCode": "SC",
    "countryCode": "CN"
  },
  {
    "id": 225,
    "name": "Zhaojue",
    "latitude": "28.01410440",
    "longitude": "102.84344670",
    "stateId": 2277,
    "stateCode": "SC",
    "countryCode": "CN"
  },
  {
    "id": 226,
    "name": "Zhongba",
    "latitude": "31.77819000",
    "longitude": "104.73932000",
    "stateId": 2277,
    "stateCode": "SC",
    "countryCode": "CN"
  },
  {
    "id": 227,
    "name": "Zhongjiang",
    "latitude": "31.03674190",
    "longitude": "104.67437830",
    "stateId": 2277,
    "stateCode": "SC",
    "countryCode": "CN"
  },
  {
    "id": 228,
    "name": "Zigong",
    "latitude": "29.29957460",
    "longitude": "104.69283920",
    "stateId": 2277,
    "stateCode": "SC",
    "countryCode": "CN"
  },
  {
    "id": 229,
    "name": "Ziliujing",
    "latitude": "29.27715350",
    "longitude": "104.70444880",
    "stateId": 2277,
    "stateCode": "SC",
    "countryCode": "CN"
  },
  {
    "id": 230,
    "name": "Zitong",
    "latitude": "31.65513060",
    "longitude": "105.19124850",
    "stateId": 2277,
    "stateCode": "SC",
    "countryCode": "CN"
  },
  {
    "id": 231,
    "name": "Ziyang",
    "latitude": "30.09286180",
    "longitude": "105.13366560",
    "stateId": 2277,
    "stateCode": "SC",
    "countryCode": "CN"
  },
  {
    "id": 232,
    "name": "Zizhong",
    "latitude": "29.78251110",
    "longitude": "104.80992510",
    "stateId": 2277,
    "stateCode": "SC",
    "countryCode": "CN"
  }
]