[
  {
    "id": 0,
    "name": "Adachi Ku",
    "latitude": "35.77880000",
    "longitude": "139.79509000",
    "stateId": 823,
    "stateCode": "13",
    "countryCode": "JP"
  },
  {
    "id": 1,
    "name": "Akiruno-shi",
    "latitude": "35.73285000",
    "longitude": "139.22525000",
    "stateId": 823,
    "stateCode": "13",
    "countryCode": "JP"
  },
  {
    "id": 2,
    "name": "Akishima-shi",
    "latitude": "35.70782000",
    "longitude": "139.36418000",
    "stateId": 823,
    "stateCode": "13",
    "countryCode": "JP"
  },
  {
    "id": 3,
    "name": "Arakawa Ku",
    "latitude": "35.73993000",
    "longitude": "139.78130000",
    "stateId": 823,
    "stateCode": "13",
    "countryCode": "JP"
  },
  {
    "id": 4,
    "name": "Bunkyō-ku",
    "latitude": "35.71745000",
    "longitude": "139.74729000",
    "stateId": 823,
    "stateCode": "13",
    "countryCode": "JP"
  },
  {
    "id": 5,
    "name": "Chiyoda-ku",
    "latitude": "35.69402000",
    "longitude": "139.75363000",
    "stateId": 823,
    "stateCode": "13",
    "countryCode": "JP"
  },
  {
    "id": 6,
    "name": "Chōfu",
    "latitude": "35.65924000",
    "longitude": "139.54837000",
    "stateId": 823,
    "stateCode": "13",
    "countryCode": "JP"
  },
  {
    "id": 7,
    "name": "Chōfu-shi",
    "latitude": "35.65000000",
    "longitude": "139.55000000",
    "stateId": 823,
    "stateCode": "13",
    "countryCode": "JP"
  },
  {
    "id": 8,
    "name": "Chūō Ku",
    "latitude": "35.66993000",
    "longitude": "139.77705000",
    "stateId": 823,
    "stateCode": "13",
    "countryCode": "JP"
  },
  {
    "id": 9,
    "name": "Edogawa Ku",
    "latitude": "35.69242000",
    "longitude": "139.87567000",
    "stateId": 823,
    "stateCode": "13",
    "countryCode": "JP"
  },
  {
    "id": 10,
    "name": "Fuchū-shi",
    "latitude": "35.66667000",
    "longitude": "139.50000000",
    "stateId": 823,
    "stateCode": "13",
    "countryCode": "JP"
  },
  {
    "id": 11,
    "name": "Fussa",
    "latitude": "35.73667000",
    "longitude": "139.32361000",
    "stateId": 823,
    "stateCode": "13",
    "countryCode": "JP"
  },
  {
    "id": 12,
    "name": "Hachiōji",
    "latitude": "35.65583000",
    "longitude": "139.32389000",
    "stateId": 823,
    "stateCode": "13",
    "countryCode": "JP"
  },
  {
    "id": 13,
    "name": "Hamura-shi",
    "latitude": "35.76351000",
    "longitude": "139.31411000",
    "stateId": 823,
    "stateCode": "13",
    "countryCode": "JP"
  },
  {
    "id": 14,
    "name": "Higashi-murayama-shi",
    "latitude": "35.75529000",
    "longitude": "139.46972000",
    "stateId": 823,
    "stateCode": "13",
    "countryCode": "JP"
  },
  {
    "id": 15,
    "name": "Higashikurume-shi",
    "latitude": "35.75821000",
    "longitude": "139.52954000",
    "stateId": 823,
    "stateCode": "13",
    "countryCode": "JP"
  },
  {
    "id": 16,
    "name": "Higashimurayama",
    "latitude": "35.75459000",
    "longitude": "139.46852000",
    "stateId": 823,
    "stateCode": "13",
    "countryCode": "JP"
  },
  {
    "id": 17,
    "name": "Higashiyamato",
    "latitude": "35.76298000",
    "longitude": "139.44575000",
    "stateId": 823,
    "stateCode": "13",
    "countryCode": "JP"
  },
  {
    "id": 18,
    "name": "Higashiyamato-shi",
    "latitude": "35.75031000",
    "longitude": "139.42660000",
    "stateId": 823,
    "stateCode": "13",
    "countryCode": "JP"
  },
  {
    "id": 19,
    "name": "Hino",
    "latitude": "35.67306000",
    "longitude": "139.40028000",
    "stateId": 823,
    "stateCode": "13",
    "countryCode": "JP"
  },
  {
    "id": 20,
    "name": "Hino-shi",
    "latitude": "35.66333000",
    "longitude": "139.39865000",
    "stateId": 823,
    "stateCode": "13",
    "countryCode": "JP"
  },
  {
    "id": 21,
    "name": "Inagi-shi",
    "latitude": "35.63290000",
    "longitude": "139.49291000",
    "stateId": 823,
    "stateCode": "13",
    "countryCode": "JP"
  },
  {
    "id": 22,
    "name": "Itabashi-ku",
    "latitude": "35.75118000",
    "longitude": "139.70927000",
    "stateId": 823,
    "stateCode": "13",
    "countryCode": "JP"
  },
  {
    "id": 23,
    "name": "Itsukaichi",
    "latitude": "35.72528000",
    "longitude": "139.21778000",
    "stateId": 823,
    "stateCode": "13",
    "countryCode": "JP"
  },
  {
    "id": 24,
    "name": "Kamirenjaku",
    "latitude": "35.69423000",
    "longitude": "139.55495000",
    "stateId": 823,
    "stateCode": "13",
    "countryCode": "JP"
  },
  {
    "id": 25,
    "name": "Katsushika Ku",
    "latitude": "35.75324000",
    "longitude": "139.85567000",
    "stateId": 823,
    "stateCode": "13",
    "countryCode": "JP"
  },
  {
    "id": 26,
    "name": "Kita-ku",
    "latitude": "35.75264000",
    "longitude": "139.73348000",
    "stateId": 823,
    "stateCode": "13",
    "countryCode": "JP"
  },
  {
    "id": 27,
    "name": "Kiyose-shi",
    "latitude": "35.78551000",
    "longitude": "139.52628000",
    "stateId": 823,
    "stateCode": "13",
    "countryCode": "JP"
  },
  {
    "id": 28,
    "name": "Kodaira-shi",
    "latitude": "35.72738000",
    "longitude": "139.48173000",
    "stateId": 823,
    "stateCode": "13",
    "countryCode": "JP"
  },
  {
    "id": 29,
    "name": "Koganei-shi",
    "latitude": "35.70108000",
    "longitude": "139.51104000",
    "stateId": 823,
    "stateCode": "13",
    "countryCode": "JP"
  },
  {
    "id": 30,
    "name": "Kokubunji",
    "latitude": "35.70222000",
    "longitude": "139.47556000",
    "stateId": 823,
    "stateCode": "13",
    "countryCode": "JP"
  },
  {
    "id": 31,
    "name": "Kokubunji-shi",
    "latitude": "35.70552000",
    "longitude": "139.46125000",
    "stateId": 823,
    "stateCode": "13",
    "countryCode": "JP"
  },
  {
    "id": 32,
    "name": "Komae-shi",
    "latitude": "35.63487000",
    "longitude": "139.57723000",
    "stateId": 823,
    "stateCode": "13",
    "countryCode": "JP"
  },
  {
    "id": 33,
    "name": "Kōtō-ku",
    "latitude": "35.66667000",
    "longitude": "139.81667000",
    "stateId": 823,
    "stateCode": "13",
    "countryCode": "JP"
  },
  {
    "id": 34,
    "name": "Kunitachi-shi",
    "latitude": "35.68634000",
    "longitude": "139.43878000",
    "stateId": 823,
    "stateCode": "13",
    "countryCode": "JP"
  },
  {
    "id": 35,
    "name": "Machida",
    "latitude": "35.54028000",
    "longitude": "139.45083000",
    "stateId": 823,
    "stateCode": "13",
    "countryCode": "JP"
  },
  {
    "id": 36,
    "name": "Machida-shi",
    "latitude": "35.57626000",
    "longitude": "139.42998000",
    "stateId": 823,
    "stateCode": "13",
    "countryCode": "JP"
  },
  {
    "id": 37,
    "name": "Meguro-ku",
    "latitude": "35.64146000",
    "longitude": "139.69817000",
    "stateId": 823,
    "stateCode": "13",
    "countryCode": "JP"
  },
  {
    "id": 38,
    "name": "Minato-ku",
    "latitude": "35.65000000",
    "longitude": "139.73333000",
    "stateId": 823,
    "stateCode": "13",
    "countryCode": "JP"
  },
  {
    "id": 39,
    "name": "Mitaka-shi",
    "latitude": "35.68351000",
    "longitude": "139.55963000",
    "stateId": 823,
    "stateCode": "13",
    "countryCode": "JP"
  },
  {
    "id": 40,
    "name": "Musashimurayama-shi",
    "latitude": "35.75037000",
    "longitude": "139.38391000",
    "stateId": 823,
    "stateCode": "13",
    "countryCode": "JP"
  },
  {
    "id": 41,
    "name": "Musashino",
    "latitude": "35.70611000",
    "longitude": "139.55944000",
    "stateId": 823,
    "stateCode": "13",
    "countryCode": "JP"
  },
  {
    "id": 42,
    "name": "Musashino-shi",
    "latitude": "35.71771000",
    "longitude": "139.56600000",
    "stateId": 823,
    "stateCode": "13",
    "countryCode": "JP"
  },
  {
    "id": 43,
    "name": "Nakano-ku",
    "latitude": "35.71091000",
    "longitude": "139.66248000",
    "stateId": 823,
    "stateCode": "13",
    "countryCode": "JP"
  },
  {
    "id": 44,
    "name": "Nerima-ku",
    "latitude": "35.73551000",
    "longitude": "139.65168000",
    "stateId": 823,
    "stateCode": "13",
    "countryCode": "JP"
  },
  {
    "id": 45,
    "name": "Nishi-Tokyo-shi",
    "latitude": "35.72526000",
    "longitude": "139.53830000",
    "stateId": 823,
    "stateCode": "13",
    "countryCode": "JP"
  },
  {
    "id": 46,
    "name": "Nishitōkyō-shi",
    "latitude": "35.73485000",
    "longitude": "139.54624000",
    "stateId": 823,
    "stateCode": "13",
    "countryCode": "JP"
  },
  {
    "id": 47,
    "name": "Ōme",
    "latitude": "35.78389000",
    "longitude": "139.24306000",
    "stateId": 823,
    "stateCode": "13",
    "countryCode": "JP"
  },
  {
    "id": 48,
    "name": "Ōme-shi",
    "latitude": "35.78814000",
    "longitude": "139.27501000",
    "stateId": 823,
    "stateCode": "13",
    "countryCode": "JP"
  },
  {
    "id": 49,
    "name": "Ōta-ku",
    "latitude": "35.56126000",
    "longitude": "139.71605000",
    "stateId": 823,
    "stateCode": "13",
    "countryCode": "JP"
  },
  {
    "id": 50,
    "name": "Setagaya-ku",
    "latitude": "35.64657000",
    "longitude": "139.65325000",
    "stateId": 823,
    "stateCode": "13",
    "countryCode": "JP"
  },
  {
    "id": 51,
    "name": "Shibuya-ku",
    "latitude": "35.66404000",
    "longitude": "139.69821000",
    "stateId": 823,
    "stateCode": "13",
    "countryCode": "JP"
  },
  {
    "id": 52,
    "name": "Shinagawa-ku",
    "latitude": "35.60902000",
    "longitude": "139.73017000",
    "stateId": 823,
    "stateCode": "13",
    "countryCode": "JP"
  },
  {
    "id": 53,
    "name": "Shinjuku-ku",
    "latitude": "35.69384000",
    "longitude": "139.70355000",
    "stateId": 823,
    "stateCode": "13",
    "countryCode": "JP"
  },
  {
    "id": 54,
    "name": "Suginami-ku",
    "latitude": "35.69951000",
    "longitude": "139.63641000",
    "stateId": 823,
    "stateCode": "13",
    "countryCode": "JP"
  },
  {
    "id": 55,
    "name": "Sumida-ku",
    "latitude": "35.71072000",
    "longitude": "139.80150000",
    "stateId": 823,
    "stateCode": "13",
    "countryCode": "JP"
  },
  {
    "id": 56,
    "name": "Tachikawa-shi",
    "latitude": "35.71447000",
    "longitude": "139.40453000",
    "stateId": 823,
    "stateCode": "13",
    "countryCode": "JP"
  },
  {
    "id": 57,
    "name": "Taitō-ku",
    "latitude": "35.71261000",
    "longitude": "139.78000000",
    "stateId": 823,
    "stateCode": "13",
    "countryCode": "JP"
  },
  {
    "id": 58,
    "name": "Tama-shi",
    "latitude": "35.63054000",
    "longitude": "139.43976000",
    "stateId": 823,
    "stateCode": "13",
    "countryCode": "JP"
  },
  {
    "id": 59,
    "name": "Tanashichō",
    "latitude": "35.72922000",
    "longitude": "139.53813000",
    "stateId": 823,
    "stateCode": "13",
    "countryCode": "JP"
  },
  {
    "id": 60,
    "name": "Tokyo",
    "latitude": "35.68950000",
    "longitude": "139.69171000",
    "stateId": 823,
    "stateCode": "13",
    "countryCode": "JP"
  },
  {
    "id": 61,
    "name": "Toshima-ku",
    "latitude": "35.73246000",
    "longitude": "139.71540000",
    "stateId": 823,
    "stateCode": "13",
    "countryCode": "JP"
  },
  {
    "id": 62,
    "name": "Urayasu",
    "latitude": "35.67056000",
    "longitude": "139.88861000",
    "stateId": 823,
    "stateCode": "13",
    "countryCode": "JP"
  }
]