[
  {
    "id": 0,
    "name": "Ajalvir",
    "latitude": "40.53205000",
    "longitude": "-3.47841000",
    "stateId": 1158,
    "stateCode": "M",
    "countryCode": "ES"
  },
  {
    "id": 1,
    "name": "Alameda del Valle",
    "latitude": "40.91870000",
    "longitude": "-3.84243000",
    "stateId": 1158,
    "stateCode": "M",
    "countryCode": "ES"
  },
  {
    "id": 2,
    "name": "Alcalá de Henares",
    "latitude": "40.48205000",
    "longitude": "-3.35996000",
    "stateId": 1158,
    "stateCode": "M",
    "countryCode": "ES"
  },
  {
    "id": 3,
    "name": "Alcobendas",
    "latitude": "40.54746000",
    "longitude": "-3.64197000",
    "stateId": 1158,
    "stateCode": "M",
    "countryCode": "ES"
  },
  {
    "id": 4,
    "name": "Alcorcón",
    "latitude": "40.34582000",
    "longitude": "-3.82487000",
    "stateId": 1158,
    "stateCode": "M",
    "countryCode": "ES"
  },
  {
    "id": 5,
    "name": "Aldea del Fresno",
    "latitude": "40.32360000",
    "longitude": "-4.20319000",
    "stateId": 1158,
    "stateCode": "M",
    "countryCode": "ES"
  },
  {
    "id": 6,
    "name": "Algete",
    "latitude": "40.59711000",
    "longitude": "-3.49743000",
    "stateId": 1158,
    "stateCode": "M",
    "countryCode": "ES"
  },
  {
    "id": 7,
    "name": "Alpedrete",
    "latitude": "40.65889000",
    "longitude": "-4.02512000",
    "stateId": 1158,
    "stateCode": "M",
    "countryCode": "ES"
  },
  {
    "id": 8,
    "name": "Ambite",
    "latitude": "40.33190000",
    "longitude": "-3.18034000",
    "stateId": 1158,
    "stateCode": "M",
    "countryCode": "ES"
  },
  {
    "id": 9,
    "name": "Anchuelo",
    "latitude": "40.46527000",
    "longitude": "-3.26838000",
    "stateId": 1158,
    "stateCode": "M",
    "countryCode": "ES"
  },
  {
    "id": 10,
    "name": "Aranjuez",
    "latitude": "40.03108000",
    "longitude": "-3.60246000",
    "stateId": 1158,
    "stateCode": "M",
    "countryCode": "ES"
  },
  {
    "id": 11,
    "name": "Arganda",
    "latitude": "40.30076000",
    "longitude": "-3.43722000",
    "stateId": 1158,
    "stateCode": "M",
    "countryCode": "ES"
  },
  {
    "id": 12,
    "name": "Arganda del Rey",
    "latitude": "40.30643080",
    "longitude": "-3.44717150",
    "stateId": 1158,
    "stateCode": "M",
    "countryCode": "ES"
  },
  {
    "id": 13,
    "name": "Arganzuela",
    "latitude": "40.40021000",
    "longitude": "-3.69618000",
    "stateId": 1158,
    "stateCode": "M",
    "countryCode": "ES"
  },
  {
    "id": 14,
    "name": "Arroyomolinos",
    "latitude": "40.26951000",
    "longitude": "-3.91946000",
    "stateId": 1158,
    "stateCode": "M",
    "countryCode": "ES"
  },
  {
    "id": 15,
    "name": "Barajas de Madrid",
    "latitude": "40.47366000",
    "longitude": "-3.57777000",
    "stateId": 1158,
    "stateCode": "M",
    "countryCode": "ES"
  },
  {
    "id": 16,
    "name": "Batres",
    "latitude": "40.20981000",
    "longitude": "-3.92331000",
    "stateId": 1158,
    "stateCode": "M",
    "countryCode": "ES"
  },
  {
    "id": 17,
    "name": "Becerril de la Sierra",
    "latitude": "40.71699000",
    "longitude": "-3.98858000",
    "stateId": 1158,
    "stateCode": "M",
    "countryCode": "ES"
  },
  {
    "id": 18,
    "name": "Belmonte de Tajo",
    "latitude": "40.13162000",
    "longitude": "-3.33580000",
    "stateId": 1158,
    "stateCode": "M",
    "countryCode": "ES"
  },
  {
    "id": 19,
    "name": "Berzosa del Lozoya",
    "latitude": "40.97320000",
    "longitude": "-3.52009000",
    "stateId": 1158,
    "stateCode": "M",
    "countryCode": "ES"
  },
  {
    "id": 20,
    "name": "Boadilla del Monte",
    "latitude": "40.40500000",
    "longitude": "-3.87835000",
    "stateId": 1158,
    "stateCode": "M",
    "countryCode": "ES"
  },
  {
    "id": 21,
    "name": "Boalo",
    "latitude": "40.71603000",
    "longitude": "-3.91656000",
    "stateId": 1158,
    "stateCode": "M",
    "countryCode": "ES"
  },
  {
    "id": 22,
    "name": "Braojos",
    "latitude": "41.04040000",
    "longitude": "-3.64329000",
    "stateId": 1158,
    "stateCode": "M",
    "countryCode": "ES"
  },
  {
    "id": 23,
    "name": "Brea de Tajo",
    "latitude": "40.23333000",
    "longitude": "-3.10000000",
    "stateId": 1158,
    "stateCode": "M",
    "countryCode": "ES"
  },
  {
    "id": 24,
    "name": "Brunete",
    "latitude": "40.40532000",
    "longitude": "-3.99850000",
    "stateId": 1158,
    "stateCode": "M",
    "countryCode": "ES"
  },
  {
    "id": 25,
    "name": "Buitrago del Lozoya",
    "latitude": "40.99090000",
    "longitude": "-3.63365000",
    "stateId": 1158,
    "stateCode": "M",
    "countryCode": "ES"
  },
  {
    "id": 26,
    "name": "Bustarviejo",
    "latitude": "40.85720000",
    "longitude": "-3.70766000",
    "stateId": 1158,
    "stateCode": "M",
    "countryCode": "ES"
  },
  {
    "id": 27,
    "name": "Cabanillas de la Sierra",
    "latitude": "40.82009000",
    "longitude": "-3.62438000",
    "stateId": 1158,
    "stateCode": "M",
    "countryCode": "ES"
  },
  {
    "id": 28,
    "name": "Cadalso de los Vidrios",
    "latitude": "40.30067000",
    "longitude": "-4.43348000",
    "stateId": 1158,
    "stateCode": "M",
    "countryCode": "ES"
  },
  {
    "id": 29,
    "name": "Camarma de Esteruelas",
    "latitude": "40.55032000",
    "longitude": "-3.37295000",
    "stateId": 1158,
    "stateCode": "M",
    "countryCode": "ES"
  },
  {
    "id": 30,
    "name": "Campo Real",
    "latitude": "40.33333000",
    "longitude": "-3.38333000",
    "stateId": 1158,
    "stateCode": "M",
    "countryCode": "ES"
  },
  {
    "id": 31,
    "name": "Canencia",
    "latitude": "40.90728000",
    "longitude": "-3.73523000",
    "stateId": 1158,
    "stateCode": "M",
    "countryCode": "ES"
  },
  {
    "id": 32,
    "name": "Carabaña",
    "latitude": "40.25424000",
    "longitude": "-3.23572000",
    "stateId": 1158,
    "stateCode": "M",
    "countryCode": "ES"
  },
  {
    "id": 33,
    "name": "Carabanchel",
    "latitude": "40.39094000",
    "longitude": "-3.72420000",
    "stateId": 1158,
    "stateCode": "M",
    "countryCode": "ES"
  },
  {
    "id": 34,
    "name": "Casarrubuelos",
    "latitude": "40.17146000",
    "longitude": "-3.83105000",
    "stateId": 1158,
    "stateCode": "M",
    "countryCode": "ES"
  },
  {
    "id": 35,
    "name": "Cenicientos",
    "latitude": "40.26459000",
    "longitude": "-4.46683000",
    "stateId": 1158,
    "stateCode": "M",
    "countryCode": "ES"
  },
  {
    "id": 36,
    "name": "Cercedilla",
    "latitude": "40.74101000",
    "longitude": "-4.05644000",
    "stateId": 1158,
    "stateCode": "M",
    "countryCode": "ES"
  },
  {
    "id": 37,
    "name": "Cervera de Buitrago",
    "latitude": "40.91988000",
    "longitude": "-3.52702000",
    "stateId": 1158,
    "stateCode": "M",
    "countryCode": "ES"
  },
  {
    "id": 38,
    "name": "Chamberí",
    "latitude": "40.43404000",
    "longitude": "-3.70379000",
    "stateId": 1158,
    "stateCode": "M",
    "countryCode": "ES"
  },
  {
    "id": 39,
    "name": "Chapinería",
    "latitude": "40.37891000",
    "longitude": "-4.21009000",
    "stateId": 1158,
    "stateCode": "M",
    "countryCode": "ES"
  },
  {
    "id": 40,
    "name": "Chinchón",
    "latitude": "40.14020000",
    "longitude": "-3.42267000",
    "stateId": 1158,
    "stateCode": "M",
    "countryCode": "ES"
  },
  {
    "id": 41,
    "name": "Ciempozuelos",
    "latitude": "40.15913000",
    "longitude": "-3.62103000",
    "stateId": 1158,
    "stateCode": "M",
    "countryCode": "ES"
  },
  {
    "id": 42,
    "name": "City Center",
    "latitude": "40.41831000",
    "longitude": "-3.70275000",
    "stateId": 1158,
    "stateCode": "M",
    "countryCode": "ES"
  },
  {
    "id": 43,
    "name": "Ciudad Lineal",
    "latitude": "40.44505000",
    "longitude": "-3.65132000",
    "stateId": 1158,
    "stateCode": "M",
    "countryCode": "ES"
  },
  {
    "id": 44,
    "name": "Cobeña",
    "latitude": "40.56667000",
    "longitude": "-3.50000000",
    "stateId": 1158,
    "stateCode": "M",
    "countryCode": "ES"
  },
  {
    "id": 45,
    "name": "Collado Mediano",
    "latitude": "40.69326000",
    "longitude": "-4.02280000",
    "stateId": 1158,
    "stateCode": "M",
    "countryCode": "ES"
  },
  {
    "id": 46,
    "name": "Collado Villalba",
    "latitude": "40.63086750",
    "longitude": "-4.00544580",
    "stateId": 1158,
    "stateCode": "M",
    "countryCode": "ES"
  },
  {
    "id": 47,
    "name": "Colmenar de Oreja",
    "latitude": "40.10675000",
    "longitude": "-3.38547000",
    "stateId": 1158,
    "stateCode": "M",
    "countryCode": "ES"
  },
  {
    "id": 48,
    "name": "Colmenar del Arroyo",
    "latitude": "40.41897000",
    "longitude": "-4.19845000",
    "stateId": 1158,
    "stateCode": "M",
    "countryCode": "ES"
  },
  {
    "id": 49,
    "name": "Colmenar Viejo",
    "latitude": "40.65909000",
    "longitude": "-3.76762000",
    "stateId": 1158,
    "stateCode": "M",
    "countryCode": "ES"
  },
  {
    "id": 50,
    "name": "Colmenarejo",
    "latitude": "40.56063000",
    "longitude": "-4.01713000",
    "stateId": 1158,
    "stateCode": "M",
    "countryCode": "ES"
  },
  {
    "id": 51,
    "name": "Corpa",
    "latitude": "40.42327000",
    "longitude": "-3.26003000",
    "stateId": 1158,
    "stateCode": "M",
    "countryCode": "ES"
  },
  {
    "id": 52,
    "name": "Coslada",
    "latitude": "40.42378000",
    "longitude": "-3.56129000",
    "stateId": 1158,
    "stateCode": "M",
    "countryCode": "ES"
  },
  {
    "id": 53,
    "name": "Cubas",
    "latitude": "40.18900000",
    "longitude": "-3.83526000",
    "stateId": 1158,
    "stateCode": "M",
    "countryCode": "ES"
  },
  {
    "id": 54,
    "name": "Cubas de la Sagra",
    "latitude": "40.19105680",
    "longitude": "-3.83720050",
    "stateId": 1158,
    "stateCode": "M",
    "countryCode": "ES"
  },
  {
    "id": 55,
    "name": "Daganzo de Arriba",
    "latitude": "40.54293000",
    "longitude": "-3.45457000",
    "stateId": 1158,
    "stateCode": "M",
    "countryCode": "ES"
  },
  {
    "id": 56,
    "name": "El Álamo",
    "latitude": "40.23066000",
    "longitude": "-3.99447000",
    "stateId": 1158,
    "stateCode": "M",
    "countryCode": "ES"
  },
  {
    "id": 57,
    "name": "El Álamo",
    "latitude": "40.23120910",
    "longitude": "-3.99422110",
    "stateId": 1158,
    "stateCode": "M",
    "countryCode": "ES"
  },
  {
    "id": 58,
    "name": "El Atazar",
    "latitude": "40.93405330",
    "longitude": "-3.47097970",
    "stateId": 1158,
    "stateCode": "M",
    "countryCode": "ES"
  },
  {
    "id": 59,
    "name": "El Berrueco",
    "latitude": "40.88930890",
    "longitude": "-3.56292340",
    "stateId": 1158,
    "stateCode": "M",
    "countryCode": "ES"
  },
  {
    "id": 60,
    "name": "El Boalo",
    "latitude": "40.71980310",
    "longitude": "-3.91964320",
    "stateId": 1158,
    "stateCode": "M",
    "countryCode": "ES"
  },
  {
    "id": 61,
    "name": "El Escorial",
    "latitude": "40.58426570",
    "longitude": "-4.12804680",
    "stateId": 1158,
    "stateCode": "M",
    "countryCode": "ES"
  },
  {
    "id": 62,
    "name": "El Escorial",
    "latitude": "40.58254000",
    "longitude": "-4.12846000",
    "stateId": 1158,
    "stateCode": "M",
    "countryCode": "ES"
  },
  {
    "id": 63,
    "name": "El Molar",
    "latitude": "40.73215000",
    "longitude": "-3.57969000",
    "stateId": 1158,
    "stateCode": "M",
    "countryCode": "ES"
  },
  {
    "id": 64,
    "name": "El Molar",
    "latitude": "40.73516030",
    "longitude": "-3.58253470",
    "stateId": 1158,
    "stateCode": "M",
    "countryCode": "ES"
  },
  {
    "id": 65,
    "name": "El Pardo",
    "latitude": "40.51454000",
    "longitude": "-3.77253000",
    "stateId": 1158,
    "stateCode": "M",
    "countryCode": "ES"
  },
  {
    "id": 66,
    "name": "El Vellón",
    "latitude": "40.76495000",
    "longitude": "-3.57969000",
    "stateId": 1158,
    "stateCode": "M",
    "countryCode": "ES"
  },
  {
    "id": 67,
    "name": "El Vellón",
    "latitude": "40.76743890",
    "longitude": "-3.58190200",
    "stateId": 1158,
    "stateCode": "M",
    "countryCode": "ES"
  },
  {
    "id": 68,
    "name": "Estremera",
    "latitude": "40.18333000",
    "longitude": "-3.10000000",
    "stateId": 1158,
    "stateCode": "M",
    "countryCode": "ES"
  },
  {
    "id": 69,
    "name": "Fresnedillas",
    "latitude": "40.48704000",
    "longitude": "-4.17146000",
    "stateId": 1158,
    "stateCode": "M",
    "countryCode": "ES"
  },
  {
    "id": 70,
    "name": "Fresnedillas de la Oliva",
    "latitude": "40.48640170",
    "longitude": "-4.17222550",
    "stateId": 1158,
    "stateCode": "M",
    "countryCode": "ES"
  },
  {
    "id": 71,
    "name": "Fresno de Torote",
    "latitude": "40.59040000",
    "longitude": "-3.41003000",
    "stateId": 1158,
    "stateCode": "M",
    "countryCode": "ES"
  },
  {
    "id": 72,
    "name": "Fuencarral-El Pardo",
    "latitude": "40.49840000",
    "longitude": "-3.73140000",
    "stateId": 1158,
    "stateCode": "M",
    "countryCode": "ES"
  },
  {
    "id": 73,
    "name": "Fuenlabrada",
    "latitude": "40.28419000",
    "longitude": "-3.79415000",
    "stateId": 1158,
    "stateCode": "M",
    "countryCode": "ES"
  },
  {
    "id": 74,
    "name": "Fuente el Saz",
    "latitude": "40.63215000",
    "longitude": "-3.51146000",
    "stateId": 1158,
    "stateCode": "M",
    "countryCode": "ES"
  },
  {
    "id": 75,
    "name": "Fuente el Saz de Jarama",
    "latitude": "40.63521390",
    "longitude": "-3.51078940",
    "stateId": 1158,
    "stateCode": "M",
    "countryCode": "ES"
  },
  {
    "id": 76,
    "name": "Fuentidueña de Tajo",
    "latitude": "40.11574000",
    "longitude": "-3.15718000",
    "stateId": 1158,
    "stateCode": "M",
    "countryCode": "ES"
  },
  {
    "id": 77,
    "name": "Galapagar",
    "latitude": "40.57830000",
    "longitude": "-4.00426000",
    "stateId": 1158,
    "stateCode": "M",
    "countryCode": "ES"
  },
  {
    "id": 78,
    "name": "Garganta de los Montes",
    "latitude": "40.91992000",
    "longitude": "-3.68375000",
    "stateId": 1158,
    "stateCode": "M",
    "countryCode": "ES"
  },
  {
    "id": 79,
    "name": "Gargantilla del Lozoya y Pinilla de Buitrago",
    "latitude": "40.96482980",
    "longitude": "-3.70797450",
    "stateId": 1158,
    "stateCode": "M",
    "countryCode": "ES"
  },
  {
    "id": 80,
    "name": "Gascones",
    "latitude": "41.01843000",
    "longitude": "-3.64217000",
    "stateId": 1158,
    "stateCode": "M",
    "countryCode": "ES"
  },
  {
    "id": 81,
    "name": "Getafe",
    "latitude": "40.30571000",
    "longitude": "-3.73295000",
    "stateId": 1158,
    "stateCode": "M",
    "countryCode": "ES"
  },
  {
    "id": 82,
    "name": "Griñón",
    "latitude": "40.21249000",
    "longitude": "-3.85482000",
    "stateId": 1158,
    "stateCode": "M",
    "countryCode": "ES"
  },
  {
    "id": 83,
    "name": "Guadalix de la Sierra",
    "latitude": "40.78496000",
    "longitude": "-3.69347000",
    "stateId": 1158,
    "stateCode": "M",
    "countryCode": "ES"
  },
  {
    "id": 84,
    "name": "Guadarrama",
    "latitude": "40.67270000",
    "longitude": "-4.08949000",
    "stateId": 1158,
    "stateCode": "M",
    "countryCode": "ES"
  },
  {
    "id": 85,
    "name": "Horcajo de la Sierra",
    "latitude": "41.06723000",
    "longitude": "-3.58534000",
    "stateId": 1158,
    "stateCode": "M",
    "countryCode": "ES"
  },
  {
    "id": 86,
    "name": "Horcajo de la Sierra-Aoslos",
    "latitude": "41.06723340",
    "longitude": "-3.58542350",
    "stateId": 1158,
    "stateCode": "M",
    "countryCode": "ES"
  },
  {
    "id": 87,
    "name": "Horcajuelo de la Sierra",
    "latitude": "41.06019000",
    "longitude": "-3.54640000",
    "stateId": 1158,
    "stateCode": "M",
    "countryCode": "ES"
  },
  {
    "id": 88,
    "name": "Hortaleza",
    "latitude": "40.47444000",
    "longitude": "-3.64110000",
    "stateId": 1158,
    "stateCode": "M",
    "countryCode": "ES"
  },
  {
    "id": 89,
    "name": "Hoyo de Manzanares",
    "latitude": "40.62265000",
    "longitude": "-3.90733000",
    "stateId": 1158,
    "stateCode": "M",
    "countryCode": "ES"
  },
  {
    "id": 90,
    "name": "Humanes de Madrid",
    "latitude": "40.25038000",
    "longitude": "-3.83062000",
    "stateId": 1158,
    "stateCode": "M",
    "countryCode": "ES"
  },
  {
    "id": 91,
    "name": "La Acebeda",
    "latitude": "41.08637910",
    "longitude": "-3.62384900",
    "stateId": 1158,
    "stateCode": "M",
    "countryCode": "ES"
  },
  {
    "id": 92,
    "name": "La Cabrera",
    "latitude": "40.86558870",
    "longitude": "-3.61544820",
    "stateId": 1158,
    "stateCode": "M",
    "countryCode": "ES"
  },
  {
    "id": 93,
    "name": "La Cabrera",
    "latitude": "40.86386000",
    "longitude": "-3.61265000",
    "stateId": 1158,
    "stateCode": "M",
    "countryCode": "ES"
  },
  {
    "id": 94,
    "name": "La Hiruela",
    "latitude": "41.07748480",
    "longitude": "-3.45519890",
    "stateId": 1158,
    "stateCode": "M",
    "countryCode": "ES"
  },
  {
    "id": 95,
    "name": "La Serna del Monte",
    "latitude": "41.03074640",
    "longitude": "-3.62526320",
    "stateId": 1158,
    "stateCode": "M",
    "countryCode": "ES"
  },
  {
    "id": 96,
    "name": "Las Matas",
    "latitude": "40.55779000",
    "longitude": "-3.89173000",
    "stateId": 1158,
    "stateCode": "M",
    "countryCode": "ES"
  },
  {
    "id": 97,
    "name": "Las Rozas de Madrid",
    "latitude": "40.49292000",
    "longitude": "-3.87371000",
    "stateId": 1158,
    "stateCode": "M",
    "countryCode": "ES"
  },
  {
    "id": 98,
    "name": "Las Rozas de Madrid",
    "latitude": "40.49531380",
    "longitude": "-3.87847320",
    "stateId": 1158,
    "stateCode": "M",
    "countryCode": "ES"
  },
  {
    "id": 99,
    "name": "Las Tablas",
    "latitude": "40.50649000",
    "longitude": "-3.67235000",
    "stateId": 1158,
    "stateCode": "M",
    "countryCode": "ES"
  },
  {
    "id": 100,
    "name": "Latina",
    "latitude": "40.38897000",
    "longitude": "-3.74569000",
    "stateId": 1158,
    "stateCode": "M",
    "countryCode": "ES"
  },
  {
    "id": 101,
    "name": "Leganés",
    "latitude": "40.32718000",
    "longitude": "-3.76350000",
    "stateId": 1158,
    "stateCode": "M",
    "countryCode": "ES"
  },
  {
    "id": 102,
    "name": "Loeches",
    "latitude": "40.38343000",
    "longitude": "-3.41460000",
    "stateId": 1158,
    "stateCode": "M",
    "countryCode": "ES"
  },
  {
    "id": 103,
    "name": "Los Molinos",
    "latitude": "40.71578000",
    "longitude": "-4.07402000",
    "stateId": 1158,
    "stateCode": "M",
    "countryCode": "ES"
  },
  {
    "id": 104,
    "name": "Los Santos de la Humosa",
    "latitude": "40.49968000",
    "longitude": "-3.25332000",
    "stateId": 1158,
    "stateCode": "M",
    "countryCode": "ES"
  },
  {
    "id": 105,
    "name": "Lozoya",
    "latitude": "40.94949000",
    "longitude": "-3.79086000",
    "stateId": 1158,
    "stateCode": "M",
    "countryCode": "ES"
  },
  {
    "id": 106,
    "name": "Lozoyuela-Navas-Sieteiglesias",
    "latitude": "40.92704410",
    "longitude": "-3.61835040",
    "stateId": 1158,
    "stateCode": "M",
    "countryCode": "ES"
  },
  {
    "id": 107,
    "name": "Madarcos",
    "latitude": "40.46209940",
    "longitude": "-3.65152560",
    "stateId": 1158,
    "stateCode": "M",
    "countryCode": "ES"
  },
  {
    "id": 108,
    "name": "Madrid",
    "latitude": "40.41650000",
    "longitude": "-3.70256000",
    "stateId": 1158,
    "stateCode": "M",
    "countryCode": "ES"
  },
  {
    "id": 109,
    "name": "Majadahonda",
    "latitude": "40.47353000",
    "longitude": "-3.87182000",
    "stateId": 1158,
    "stateCode": "M",
    "countryCode": "ES"
  },
  {
    "id": 110,
    "name": "Manzanares el Real",
    "latitude": "40.72627000",
    "longitude": "-3.86265000",
    "stateId": 1158,
    "stateCode": "M",
    "countryCode": "ES"
  },
  {
    "id": 111,
    "name": "Meco",
    "latitude": "40.55274000",
    "longitude": "-3.32894000",
    "stateId": 1158,
    "stateCode": "M",
    "countryCode": "ES"
  },
  {
    "id": 112,
    "name": "Mejorada del Campo",
    "latitude": "40.39283000",
    "longitude": "-3.48194000",
    "stateId": 1158,
    "stateCode": "M",
    "countryCode": "ES"
  },
  {
    "id": 113,
    "name": "Miraflores de la Sierra",
    "latitude": "40.81550000",
    "longitude": "-3.76213000",
    "stateId": 1158,
    "stateCode": "M",
    "countryCode": "ES"
  },
  {
    "id": 114,
    "name": "Molinos Los",
    "latitude": "40.71941970",
    "longitude": "-4.09510380",
    "stateId": 1158,
    "stateCode": "M",
    "countryCode": "ES"
  },
  {
    "id": 115,
    "name": "Moncloa-Aravaca",
    "latitude": "40.43547000",
    "longitude": "-3.73170000",
    "stateId": 1158,
    "stateCode": "M",
    "countryCode": "ES"
  },
  {
    "id": 116,
    "name": "Montejo de la Sierra",
    "latitude": "41.05955000",
    "longitude": "-3.52993000",
    "stateId": 1158,
    "stateCode": "M",
    "countryCode": "ES"
  },
  {
    "id": 117,
    "name": "Moraleja de Enmedio",
    "latitude": "40.26125000",
    "longitude": "-3.85963000",
    "stateId": 1158,
    "stateCode": "M",
    "countryCode": "ES"
  },
  {
    "id": 118,
    "name": "Moralzarzal",
    "latitude": "40.67816000",
    "longitude": "-3.97070000",
    "stateId": 1158,
    "stateCode": "M",
    "countryCode": "ES"
  },
  {
    "id": 119,
    "name": "Morata de Tajuña",
    "latitude": "40.22680000",
    "longitude": "-3.43269000",
    "stateId": 1158,
    "stateCode": "M",
    "countryCode": "ES"
  },
  {
    "id": 120,
    "name": "Moratalaz",
    "latitude": "40.40742000",
    "longitude": "-3.64935000",
    "stateId": 1158,
    "stateCode": "M",
    "countryCode": "ES"
  },
  {
    "id": 121,
    "name": "Móstoles",
    "latitude": "40.32234000",
    "longitude": "-3.86496000",
    "stateId": 1158,
    "stateCode": "M",
    "countryCode": "ES"
  },
  {
    "id": 122,
    "name": "Navacerrada",
    "latitude": "40.72905000",
    "longitude": "-4.01696000",
    "stateId": 1158,
    "stateCode": "M",
    "countryCode": "ES"
  },
  {
    "id": 123,
    "name": "Navalafuente",
    "latitude": "40.82063000",
    "longitude": "-3.67266000",
    "stateId": 1158,
    "stateCode": "M",
    "countryCode": "ES"
  },
  {
    "id": 124,
    "name": "Navalagamella",
    "latitude": "40.46894000",
    "longitude": "-4.12334000",
    "stateId": 1158,
    "stateCode": "M",
    "countryCode": "ES"
  },
  {
    "id": 125,
    "name": "Navalcarnero",
    "latitude": "40.28908000",
    "longitude": "-4.01197000",
    "stateId": 1158,
    "stateCode": "M",
    "countryCode": "ES"
  },
  {
    "id": 126,
    "name": "Navalquejigo",
    "latitude": "40.60705000",
    "longitude": "-4.04966000",
    "stateId": 1158,
    "stateCode": "M",
    "countryCode": "ES"
  },
  {
    "id": 127,
    "name": "Navarredonda y San Mamés",
    "latitude": "40.99064930",
    "longitude": "-3.72603170",
    "stateId": 1158,
    "stateCode": "M",
    "countryCode": "ES"
  },
  {
    "id": 128,
    "name": "Navas del Rey",
    "latitude": "40.38610000",
    "longitude": "-4.25117000",
    "stateId": 1158,
    "stateCode": "M",
    "countryCode": "ES"
  },
  {
    "id": 129,
    "name": "Nuevo Baztán",
    "latitude": "40.36731000",
    "longitude": "-3.24125000",
    "stateId": 1158,
    "stateCode": "M",
    "countryCode": "ES"
  },
  {
    "id": 130,
    "name": "Olmeda de las Fuentes",
    "latitude": "40.36934590",
    "longitude": "-3.22128830",
    "stateId": 1158,
    "stateCode": "M",
    "countryCode": "ES"
  },
  {
    "id": 131,
    "name": "Orusco de Tajuña",
    "latitude": "40.28610000",
    "longitude": "-3.21142070",
    "stateId": 1158,
    "stateCode": "M",
    "countryCode": "ES"
  },
  {
    "id": 132,
    "name": "Paracuellos de Jarama",
    "latitude": "40.50353000",
    "longitude": "-3.52775000",
    "stateId": 1158,
    "stateCode": "M",
    "countryCode": "ES"
  },
  {
    "id": 133,
    "name": "Parla",
    "latitude": "40.23604000",
    "longitude": "-3.76752000",
    "stateId": 1158,
    "stateCode": "M",
    "countryCode": "ES"
  },
  {
    "id": 134,
    "name": "Patones",
    "latitude": "40.85563000",
    "longitude": "-3.48490000",
    "stateId": 1158,
    "stateCode": "M",
    "countryCode": "ES"
  },
  {
    "id": 135,
    "name": "Pedrezuela",
    "latitude": "40.74277000",
    "longitude": "-3.59980000",
    "stateId": 1158,
    "stateCode": "M",
    "countryCode": "ES"
  },
  {
    "id": 136,
    "name": "Pelayos de la Presa",
    "latitude": "40.36051000",
    "longitude": "-4.33462000",
    "stateId": 1158,
    "stateCode": "M",
    "countryCode": "ES"
  },
  {
    "id": 137,
    "name": "Perales de Tajuña",
    "latitude": "40.23130000",
    "longitude": "-3.35021000",
    "stateId": 1158,
    "stateCode": "M",
    "countryCode": "ES"
  },
  {
    "id": 138,
    "name": "Pezuela de las Torres",
    "latitude": "40.41613000",
    "longitude": "-3.17363000",
    "stateId": 1158,
    "stateCode": "M",
    "countryCode": "ES"
  },
  {
    "id": 139,
    "name": "Pinar de Chamartín",
    "latitude": "40.47903000",
    "longitude": "-3.66836000",
    "stateId": 1158,
    "stateCode": "M",
    "countryCode": "ES"
  },
  {
    "id": 140,
    "name": "Pinilla del Valle",
    "latitude": "40.92448000",
    "longitude": "-3.81688000",
    "stateId": 1158,
    "stateCode": "M",
    "countryCode": "ES"
  },
  {
    "id": 141,
    "name": "Pinto",
    "latitude": "40.24147000",
    "longitude": "-3.69999000",
    "stateId": 1158,
    "stateCode": "M",
    "countryCode": "ES"
  },
  {
    "id": 142,
    "name": "Piñuécar-Gandullas",
    "latitude": "41.01261270",
    "longitude": "-3.60120420",
    "stateId": 1158,
    "stateCode": "M",
    "countryCode": "ES"
  },
  {
    "id": 143,
    "name": "Pozuelo de Alarcón",
    "latitude": "40.43293000",
    "longitude": "-3.81338000",
    "stateId": 1158,
    "stateCode": "M",
    "countryCode": "ES"
  },
  {
    "id": 144,
    "name": "Pozuelo del Rey",
    "latitude": "40.36463000",
    "longitude": "-3.31699000",
    "stateId": 1158,
    "stateCode": "M",
    "countryCode": "ES"
  },
  {
    "id": 145,
    "name": "Prádena del Rincón",
    "latitude": "41.04414000",
    "longitude": "-3.54075000",
    "stateId": 1158,
    "stateCode": "M",
    "countryCode": "ES"
  },
  {
    "id": 146,
    "name": "Provincia de Madrid",
    "latitude": "40.40225000",
    "longitude": "-3.71029000",
    "stateId": 1158,
    "stateCode": "M",
    "countryCode": "ES"
  },
  {
    "id": 147,
    "name": "Puebla de la Sierra",
    "latitude": "41.01170460",
    "longitude": "-3.44510180",
    "stateId": 1158,
    "stateCode": "M",
    "countryCode": "ES"
  },
  {
    "id": 148,
    "name": "Puente de Vallecas",
    "latitude": "40.39354000",
    "longitude": "-3.66200000",
    "stateId": 1158,
    "stateCode": "M",
    "countryCode": "ES"
  },
  {
    "id": 149,
    "name": "Puentes Viejas",
    "latitude": "40.96498300",
    "longitude": "-3.58319900",
    "stateId": 1158,
    "stateCode": "M",
    "countryCode": "ES"
  },
  {
    "id": 150,
    "name": "Quijorna",
    "latitude": "40.42763000",
    "longitude": "-4.05683000",
    "stateId": 1158,
    "stateCode": "M",
    "countryCode": "ES"
  },
  {
    "id": 151,
    "name": "Rascafría",
    "latitude": "40.90407000",
    "longitude": "-3.87898000",
    "stateId": 1158,
    "stateCode": "M",
    "countryCode": "ES"
  },
  {
    "id": 152,
    "name": "Redueña",
    "latitude": "40.81685000",
    "longitude": "-3.59837000",
    "stateId": 1158,
    "stateCode": "M",
    "countryCode": "ES"
  },
  {
    "id": 153,
    "name": "Retiro",
    "latitude": "40.41317000",
    "longitude": "-3.68307000",
    "stateId": 1158,
    "stateCode": "M",
    "countryCode": "ES"
  },
  {
    "id": 154,
    "name": "Ribatejada",
    "latitude": "40.66420000",
    "longitude": "-3.38976000",
    "stateId": 1158,
    "stateCode": "M",
    "countryCode": "ES"
  },
  {
    "id": 155,
    "name": "Rivas-Vaciamadrid",
    "latitude": "40.32605000",
    "longitude": "-3.51089000",
    "stateId": 1158,
    "stateCode": "M",
    "countryCode": "ES"
  },
  {
    "id": 156,
    "name": "Robledillo de la Jara",
    "latitude": "40.95054000",
    "longitude": "-3.52181000",
    "stateId": 1158,
    "stateCode": "M",
    "countryCode": "ES"
  },
  {
    "id": 157,
    "name": "Robledo de Chavela",
    "latitude": "40.50062000",
    "longitude": "-4.23635000",
    "stateId": 1158,
    "stateCode": "M",
    "countryCode": "ES"
  },
  {
    "id": 158,
    "name": "Robregordo",
    "latitude": "41.10675000",
    "longitude": "-3.59345080",
    "stateId": 1158,
    "stateCode": "M",
    "countryCode": "ES"
  },
  {
    "id": 159,
    "name": "Rozas de Puerto Real",
    "latitude": "40.31667000",
    "longitude": "-4.48333000",
    "stateId": 1158,
    "stateCode": "M",
    "countryCode": "ES"
  },
  {
    "id": 160,
    "name": "San Agustín del Guadalix",
    "latitude": "40.67882000",
    "longitude": "-3.61639000",
    "stateId": 1158,
    "stateCode": "M",
    "countryCode": "ES"
  },
  {
    "id": 161,
    "name": "San Blas-Canillejas",
    "latitude": "40.43893000",
    "longitude": "-3.61537000",
    "stateId": 1158,
    "stateCode": "M",
    "countryCode": "ES"
  },
  {
    "id": 162,
    "name": "San Fernando de Henares",
    "latitude": "40.42386000",
    "longitude": "-3.53261000",
    "stateId": 1158,
    "stateCode": "M",
    "countryCode": "ES"
  },
  {
    "id": 163,
    "name": "San Lorenzo de El Escorial",
    "latitude": "40.59144000",
    "longitude": "-4.14738000",
    "stateId": 1158,
    "stateCode": "M",
    "countryCode": "ES"
  },
  {
    "id": 164,
    "name": "San Martín de la Vega",
    "latitude": "40.20735000",
    "longitude": "-3.57063000",
    "stateId": 1158,
    "stateCode": "M",
    "countryCode": "ES"
  },
  {
    "id": 165,
    "name": "San Martín de Valdeiglesias",
    "latitude": "40.36185000",
    "longitude": "-4.39831000",
    "stateId": 1158,
    "stateCode": "M",
    "countryCode": "ES"
  },
  {
    "id": 166,
    "name": "San Sebastián de los Reyes",
    "latitude": "40.55555000",
    "longitude": "-3.62733000",
    "stateId": 1158,
    "stateCode": "M",
    "countryCode": "ES"
  },
  {
    "id": 167,
    "name": "Santa María de la Alameda",
    "latitude": "40.59492000",
    "longitude": "-4.25772000",
    "stateId": 1158,
    "stateCode": "M",
    "countryCode": "ES"
  },
  {
    "id": 168,
    "name": "Santorcaz",
    "latitude": "40.47176000",
    "longitude": "-3.23462000",
    "stateId": 1158,
    "stateCode": "M",
    "countryCode": "ES"
  },
  {
    "id": 169,
    "name": "Santos de la Humosa Los",
    "latitude": "40.50129410",
    "longitude": "-3.25710540",
    "stateId": 1158,
    "stateCode": "M",
    "countryCode": "ES"
  },
  {
    "id": 170,
    "name": "Serranillos del Valle",
    "latitude": "40.20211000",
    "longitude": "-3.88187000",
    "stateId": 1158,
    "stateCode": "M",
    "countryCode": "ES"
  },
  {
    "id": 171,
    "name": "Sevilla La Nueva",
    "latitude": "40.34775000",
    "longitude": "-4.02727000",
    "stateId": 1158,
    "stateCode": "M",
    "countryCode": "ES"
  },
  {
    "id": 172,
    "name": "Somosierra",
    "latitude": "41.13525030",
    "longitude": "-3.57114660",
    "stateId": 1158,
    "stateCode": "M",
    "countryCode": "ES"
  },
  {
    "id": 173,
    "name": "Soto del Real",
    "latitude": "40.75437950",
    "longitude": "-3.78321720",
    "stateId": 1158,
    "stateCode": "M",
    "countryCode": "ES"
  },
  {
    "id": 174,
    "name": "Talamanca de Jarama",
    "latitude": "40.74325000",
    "longitude": "-3.50889000",
    "stateId": 1158,
    "stateCode": "M",
    "countryCode": "ES"
  },
  {
    "id": 175,
    "name": "Tetuán de las Victorias",
    "latitude": "40.45975000",
    "longitude": "-3.69750000",
    "stateId": 1158,
    "stateCode": "M",
    "countryCode": "ES"
  },
  {
    "id": 176,
    "name": "Tielmes",
    "latitude": "40.24652000",
    "longitude": "-3.31461000",
    "stateId": 1158,
    "stateCode": "M",
    "countryCode": "ES"
  },
  {
    "id": 177,
    "name": "Titulcia",
    "latitude": "40.13537000",
    "longitude": "-3.56763000",
    "stateId": 1158,
    "stateCode": "M",
    "countryCode": "ES"
  },
  {
    "id": 178,
    "name": "Torrejón de Ardoz",
    "latitude": "40.45535000",
    "longitude": "-3.46973000",
    "stateId": 1158,
    "stateCode": "M",
    "countryCode": "ES"
  },
  {
    "id": 179,
    "name": "Torrejón de la Calzada",
    "latitude": "40.19886000",
    "longitude": "-3.79700000",
    "stateId": 1158,
    "stateCode": "M",
    "countryCode": "ES"
  },
  {
    "id": 180,
    "name": "Torrejón de Velasco",
    "latitude": "40.18746000",
    "longitude": "-3.77681000",
    "stateId": 1158,
    "stateCode": "M",
    "countryCode": "ES"
  },
  {
    "id": 181,
    "name": "Torrelaguna",
    "latitude": "40.82764000",
    "longitude": "-3.53683000",
    "stateId": 1158,
    "stateCode": "M",
    "countryCode": "ES"
  },
  {
    "id": 182,
    "name": "Torrelodones",
    "latitude": "40.57654000",
    "longitude": "-3.92658000",
    "stateId": 1158,
    "stateCode": "M",
    "countryCode": "ES"
  },
  {
    "id": 183,
    "name": "Torremocha de Jarama",
    "latitude": "40.84148000",
    "longitude": "-3.49666000",
    "stateId": 1158,
    "stateCode": "M",
    "countryCode": "ES"
  },
  {
    "id": 184,
    "name": "Torres de la Alameda",
    "latitude": "40.40264000",
    "longitude": "-3.35767000",
    "stateId": 1158,
    "stateCode": "M",
    "countryCode": "ES"
  },
  {
    "id": 185,
    "name": "Tres Cantos",
    "latitude": "40.60092000",
    "longitude": "-3.70806000",
    "stateId": 1158,
    "stateCode": "M",
    "countryCode": "ES"
  },
  {
    "id": 186,
    "name": "Usera",
    "latitude": "40.38866000",
    "longitude": "-3.70035000",
    "stateId": 1158,
    "stateCode": "M",
    "countryCode": "ES"
  },
  {
    "id": 187,
    "name": "Valdaracete",
    "latitude": "40.20770000",
    "longitude": "-3.19101000",
    "stateId": 1158,
    "stateCode": "M",
    "countryCode": "ES"
  },
  {
    "id": 188,
    "name": "Valdeavero",
    "latitude": "40.62980000",
    "longitude": "-3.33001000",
    "stateId": 1158,
    "stateCode": "M",
    "countryCode": "ES"
  },
  {
    "id": 189,
    "name": "Valdelaguna",
    "latitude": "40.16168530",
    "longitude": "-3.36786410",
    "stateId": 1158,
    "stateCode": "M",
    "countryCode": "ES"
  },
  {
    "id": 190,
    "name": "Valdemanco",
    "latitude": "40.87039000",
    "longitude": "-3.65873000",
    "stateId": 1158,
    "stateCode": "M",
    "countryCode": "ES"
  },
  {
    "id": 191,
    "name": "Valdemaqueda",
    "latitude": "40.51201000",
    "longitude": "-4.29722000",
    "stateId": 1158,
    "stateCode": "M",
    "countryCode": "ES"
  },
  {
    "id": 192,
    "name": "Valdemorillo",
    "latitude": "40.50064000",
    "longitude": "-4.06710000",
    "stateId": 1158,
    "stateCode": "M",
    "countryCode": "ES"
  },
  {
    "id": 193,
    "name": "Valdemoro",
    "latitude": "40.19081000",
    "longitude": "-3.67887000",
    "stateId": 1158,
    "stateCode": "M",
    "countryCode": "ES"
  },
  {
    "id": 194,
    "name": "Valdeolmos",
    "latitude": "40.63708000",
    "longitude": "-3.45064000",
    "stateId": 1158,
    "stateCode": "M",
    "countryCode": "ES"
  },
  {
    "id": 195,
    "name": "Valdeolmos-Alalpardo",
    "latitude": "40.63850420",
    "longitude": "-3.45316440",
    "stateId": 1158,
    "stateCode": "M",
    "countryCode": "ES"
  },
  {
    "id": 196,
    "name": "Valdepiélagos",
    "latitude": "40.75842000",
    "longitude": "-3.46163000",
    "stateId": 1158,
    "stateCode": "M",
    "countryCode": "ES"
  },
  {
    "id": 197,
    "name": "Valdetorres de Jarama",
    "latitude": "40.69366000",
    "longitude": "-3.51156000",
    "stateId": 1158,
    "stateCode": "M",
    "countryCode": "ES"
  },
  {
    "id": 198,
    "name": "Valdilecha",
    "latitude": "40.29530000",
    "longitude": "-3.30233000",
    "stateId": 1158,
    "stateCode": "M",
    "countryCode": "ES"
  },
  {
    "id": 199,
    "name": "Valverde de Alcalá",
    "latitude": "40.41667000",
    "longitude": "-3.29631000",
    "stateId": 1158,
    "stateCode": "M",
    "countryCode": "ES"
  },
  {
    "id": 200,
    "name": "Velilla de San Antonio",
    "latitude": "40.36516000",
    "longitude": "-3.48484000",
    "stateId": 1158,
    "stateCode": "M",
    "countryCode": "ES"
  },
  {
    "id": 201,
    "name": "Venturada",
    "latitude": "40.79717000",
    "longitude": "-3.61974000",
    "stateId": 1158,
    "stateCode": "M",
    "countryCode": "ES"
  },
  {
    "id": 202,
    "name": "Vicálvaro",
    "latitude": "40.40000000",
    "longitude": "-3.60000000",
    "stateId": 1158,
    "stateCode": "M",
    "countryCode": "ES"
  },
  {
    "id": 203,
    "name": "Villa de Vallecas",
    "latitude": "40.36695000",
    "longitude": "-3.60146000",
    "stateId": 1158,
    "stateCode": "M",
    "countryCode": "ES"
  },
  {
    "id": 204,
    "name": "Villa del Prado",
    "latitude": "40.27852000",
    "longitude": "-4.30534000",
    "stateId": 1158,
    "stateCode": "M",
    "countryCode": "ES"
  },
  {
    "id": 205,
    "name": "Villaconejos",
    "latitude": "40.10139000",
    "longitude": "-3.48258000",
    "stateId": 1158,
    "stateCode": "M",
    "countryCode": "ES"
  },
  {
    "id": 206,
    "name": "Villalbilla",
    "latitude": "40.43044000",
    "longitude": "-3.29904000",
    "stateId": 1158,
    "stateCode": "M",
    "countryCode": "ES"
  },
  {
    "id": 207,
    "name": "Villamanrique de Tajo",
    "latitude": "40.06617000",
    "longitude": "-3.23668000",
    "stateId": 1158,
    "stateCode": "M",
    "countryCode": "ES"
  },
  {
    "id": 208,
    "name": "Villamanta",
    "latitude": "40.29858000",
    "longitude": "-4.10880000",
    "stateId": 1158,
    "stateCode": "M",
    "countryCode": "ES"
  },
  {
    "id": 209,
    "name": "Villamantilla",
    "latitude": "40.33846000",
    "longitude": "-4.12986000",
    "stateId": 1158,
    "stateCode": "M",
    "countryCode": "ES"
  },
  {
    "id": 210,
    "name": "Villanueva de la Cañada",
    "latitude": "40.44689000",
    "longitude": "-4.00428000",
    "stateId": 1158,
    "stateCode": "M",
    "countryCode": "ES"
  },
  {
    "id": 211,
    "name": "Villanueva de Perales",
    "latitude": "40.34541000",
    "longitude": "-4.09891000",
    "stateId": 1158,
    "stateCode": "M",
    "countryCode": "ES"
  },
  {
    "id": 212,
    "name": "Villanueva del Pardillo",
    "latitude": "40.49014000",
    "longitude": "-3.96383000",
    "stateId": 1158,
    "stateCode": "M",
    "countryCode": "ES"
  },
  {
    "id": 213,
    "name": "Villar del Olmo",
    "latitude": "40.33468000",
    "longitude": "-3.23399000",
    "stateId": 1158,
    "stateCode": "M",
    "countryCode": "ES"
  },
  {
    "id": 214,
    "name": "Villarejo de Salvanés",
    "latitude": "40.16663000",
    "longitude": "-3.27277000",
    "stateId": 1158,
    "stateCode": "M",
    "countryCode": "ES"
  },
  {
    "id": 215,
    "name": "Villaverde",
    "latitude": "40.35000000",
    "longitude": "-3.70000000",
    "stateId": 1158,
    "stateCode": "M",
    "countryCode": "ES"
  },
  {
    "id": 216,
    "name": "Villaviciosa de Odón",
    "latitude": "40.35810000",
    "longitude": "-3.90430000",
    "stateId": 1158,
    "stateCode": "M",
    "countryCode": "ES"
  },
  {
    "id": 217,
    "name": "Villavieja del Lozoya",
    "latitude": "41.00396000",
    "longitude": "-3.66870000",
    "stateId": 1158,
    "stateCode": "M",
    "countryCode": "ES"
  },
  {
    "id": 218,
    "name": "Zarzalejo",
    "latitude": "40.54811000",
    "longitude": "-4.18176000",
    "stateId": 1158,
    "stateCode": "M",
    "countryCode": "ES"
  }
]