[
  {
    "id": 0,
    "name": "Baoying",
    "latitude": "33.24237440",
    "longitude": "119.35296950",
    "stateId": 2250,
    "stateCode": "JS",
    "countryCode": "CN"
  },
  {
    "id": 1,
    "name": "Binhai",
    "latitude": "33.99336050",
    "longitude": "119.81469130",
    "stateId": 2250,
    "stateCode": "JS",
    "countryCode": "CN"
  },
  {
    "id": 2,
    "name": "Binhu",
    "latitude": "31.53004410",
    "longitude": "120.27908140",
    "stateId": 2250,
    "stateCode": "JS",
    "countryCode": "CN"
  },
  {
    "id": 3,
    "name": "Changshu",
    "latitude": "31.65729540",
    "longitude": "120.74807570",
    "stateId": 2250,
    "stateCode": "JS",
    "countryCode": "CN"
  },
  {
    "id": 4,
    "name": "ChangZhou",
    "latitude": "31.81226230",
    "longitude": "119.96915390",
    "stateId": 2250,
    "stateCode": "JS",
    "countryCode": "CN"
  },
  {
    "id": 5,
    "name": "Chongchuan",
    "latitude": "32.01270690",
    "longitude": "120.85294940",
    "stateId": 2250,
    "stateCode": "JS",
    "countryCode": "CN"
  },
  {
    "id": 6,
    "name": "Dafeng",
    "latitude": "33.20198450",
    "longitude": "120.49623750",
    "stateId": 2250,
    "stateCode": "JS",
    "countryCode": "CN"
  },
  {
    "id": 7,
    "name": "Dantu",
    "latitude": "32.13266100",
    "longitude": "119.42844970",
    "stateId": 2250,
    "stateCode": "JS",
    "countryCode": "CN"
  },
  {
    "id": 8,
    "name": "Danyang",
    "latitude": "32.01097360",
    "longitude": "119.60127020",
    "stateId": 2250,
    "stateCode": "JS",
    "countryCode": "CN"
  },
  {
    "id": 9,
    "name": "Donghai",
    "latitude": "34.54319640",
    "longitude": "118.74744070",
    "stateId": 2250,
    "stateCode": "JS",
    "countryCode": "CN"
  },
  {
    "id": 10,
    "name": "Dongtai",
    "latitude": "32.87058850",
    "longitude": "120.31536070",
    "stateId": 2250,
    "stateCode": "JS",
    "countryCode": "CN"
  },
  {
    "id": 11,
    "name": "Fengxian",
    "latitude": "34.69651250",
    "longitude": "116.65298210",
    "stateId": 2250,
    "stateCode": "JS",
    "countryCode": "CN"
  },
  {
    "id": 12,
    "name": "Funing",
    "latitude": "33.76028680",
    "longitude": "119.79693640",
    "stateId": 2250,
    "stateCode": "JS",
    "countryCode": "CN"
  },
  {
    "id": 13,
    "name": "Ganyu",
    "latitude": "34.84247440",
    "longitude": "119.16766050",
    "stateId": 2250,
    "stateCode": "JS",
    "countryCode": "CN"
  },
  {
    "id": 14,
    "name": "Gaochun",
    "latitude": "31.33049260",
    "longitude": "118.88727190",
    "stateId": 2250,
    "stateCode": "JS",
    "countryCode": "CN"
  },
  {
    "id": 15,
    "name": "Gaogang",
    "latitude": "32.32127380",
    "longitude": "119.87674740",
    "stateId": 2250,
    "stateCode": "JS",
    "countryCode": "CN"
  },
  {
    "id": 16,
    "name": "Gaoyou",
    "latitude": "32.78611340",
    "longitude": "119.42946140",
    "stateId": 2250,
    "stateCode": "JS",
    "countryCode": "CN"
  },
  {
    "id": 17,
    "name": "Guangling",
    "latitude": "32.39687460",
    "longitude": "119.42623460",
    "stateId": 2250,
    "stateCode": "JS",
    "countryCode": "CN"
  },
  {
    "id": 18,
    "name": "Guannan",
    "latitude": "34.08868650",
    "longitude": "119.30982810",
    "stateId": 2250,
    "stateCode": "JS",
    "countryCode": "CN"
  },
  {
    "id": 19,
    "name": "Guanyun",
    "latitude": "34.28536480",
    "longitude": "119.23390190",
    "stateId": 2250,
    "stateCode": "JS",
    "countryCode": "CN"
  },
  {
    "id": 20,
    "name": "Gulou",
    "latitude": "32.06901040",
    "longitude": "118.76477280",
    "stateId": 2250,
    "stateCode": "JS",
    "countryCode": "CN"
  },
  {
    "id": 21,
    "name": "Gusu",
    "latitude": "31.33951070",
    "longitude": "120.61300770",
    "stateId": 2250,
    "stateCode": "JS",
    "countryCode": "CN"
  },
  {
    "id": 22,
    "name": "Hai'an",
    "latitude": "32.53487630",
    "longitude": "120.46292390",
    "stateId": 2250,
    "stateCode": "JS",
    "countryCode": "CN"
  },
  {
    "id": 23,
    "name": "Hailing",
    "latitude": "32.49314900",
    "longitude": "119.91466140",
    "stateId": 2250,
    "stateCode": "JS",
    "countryCode": "CN"
  },
  {
    "id": 24,
    "name": "Haimen",
    "latitude": "31.87291830",
    "longitude": "121.17712950",
    "stateId": 2250,
    "stateCode": "JS",
    "countryCode": "CN"
  },
  {
    "id": 25,
    "name": "Haizhou",
    "latitude": "34.57300501",
    "longitude": "119.16126173",
    "stateId": 2250,
    "stateCode": "JS",
    "countryCode": "CN"
  },
  {
    "id": 26,
    "name": "Haizhou",
    "latitude": "34.57235430",
    "longitude": "119.15790520",
    "stateId": 2250,
    "stateCode": "JS",
    "countryCode": "CN"
  },
  {
    "id": 27,
    "name": "Hanjiang",
    "latitude": "32.37358310",
    "longitude": "119.39529350",
    "stateId": 2250,
    "stateCode": "JS",
    "countryCode": "CN"
  },
  {
    "id": 28,
    "name": "Hongze",
    "latitude": "33.29542740",
    "longitude": "118.86796870",
    "stateId": 2250,
    "stateCode": "JS",
    "countryCode": "CN"
  },
  {
    "id": 29,
    "name": "Huai'an",
    "latitude": "33.59781690",
    "longitude": "119.01969710",
    "stateId": 2250,
    "stateCode": "JS",
    "countryCode": "CN"
  },
  {
    "id": 30,
    "name": "HuaiAn",
    "latitude": "33.29433000",
    "longitude": "118.87350000",
    "stateId": 2250,
    "stateCode": "JS",
    "countryCode": "CN"
  },
  {
    "id": 31,
    "name": "Huaiyin",
    "latitude": "33.63324710",
    "longitude": "119.02932930",
    "stateId": 2250,
    "stateCode": "JS",
    "countryCode": "CN"
  },
  {
    "id": 32,
    "name": "Huishan",
    "latitude": "31.67909640",
    "longitude": "120.29273920",
    "stateId": 2250,
    "stateCode": "JS",
    "countryCode": "CN"
  },
  {
    "id": 33,
    "name": "Huqiu",
    "latitude": "31.33128200",
    "longitude": "120.42908510",
    "stateId": 2250,
    "stateCode": "JS",
    "countryCode": "CN"
  },
  {
    "id": 34,
    "name": "Jiangdu",
    "latitude": "32.43745780",
    "longitude": "119.56472880",
    "stateId": 2250,
    "stateCode": "JS",
    "countryCode": "CN"
  },
  {
    "id": 35,
    "name": "Jiangning",
    "latitude": "31.95521840",
    "longitude": "118.83481970",
    "stateId": 2250,
    "stateCode": "JS",
    "countryCode": "CN"
  },
  {
    "id": 36,
    "name": "Jiangyan",
    "latitude": "32.51126930",
    "longitude": "120.12318310",
    "stateId": 2250,
    "stateCode": "JS",
    "countryCode": "CN"
  },
  {
    "id": 37,
    "name": "Jiangyin",
    "latitude": "31.92155180",
    "longitude": "120.28088470",
    "stateId": 2250,
    "stateCode": "JS",
    "countryCode": "CN"
  },
  {
    "id": 38,
    "name": "Jianhu",
    "latitude": "33.44017830",
    "longitude": "119.78427410",
    "stateId": 2250,
    "stateCode": "JS",
    "countryCode": "CN"
  },
  {
    "id": 39,
    "name": "Jianye",
    "latitude": "32.00638360",
    "longitude": "118.72710090",
    "stateId": 2250,
    "stateCode": "JS",
    "countryCode": "CN"
  },
  {
    "id": 40,
    "name": "Jiawang",
    "latitude": "34.43729960",
    "longitude": "117.45921130",
    "stateId": 2250,
    "stateCode": "JS",
    "countryCode": "CN"
  },
  {
    "id": 41,
    "name": "Jingjiang",
    "latitude": "32.01827432",
    "longitude": "120.27557629",
    "stateId": 2250,
    "stateCode": "JS",
    "countryCode": "CN"
  },
  {
    "id": 42,
    "name": "Jingjiang",
    "latitude": "31.98613520",
    "longitude": "120.27250830",
    "stateId": 2250,
    "stateCode": "JS",
    "countryCode": "CN"
  },
  {
    "id": 43,
    "name": "Jingkou",
    "latitude": "32.20023070",
    "longitude": "119.46446700",
    "stateId": 2250,
    "stateCode": "JS",
    "countryCode": "CN"
  },
  {
    "id": 44,
    "name": "Jinhu",
    "latitude": "33.01834530",
    "longitude": "119.01365090",
    "stateId": 2250,
    "stateCode": "JS",
    "countryCode": "CN"
  },
  {
    "id": 45,
    "name": "Jintan",
    "latitude": "31.72331970",
    "longitude": "119.58251960",
    "stateId": 2250,
    "stateCode": "JS",
    "countryCode": "CN"
  },
  {
    "id": 46,
    "name": "Jurong",
    "latitude": "31.94782370",
    "longitude": "119.16339710",
    "stateId": 2250,
    "stateCode": "JS",
    "countryCode": "CN"
  },
  {
    "id": 47,
    "name": "Kunshan",
    "latitude": "31.38693230",
    "longitude": "120.97646830",
    "stateId": 2250,
    "stateCode": "JS",
    "countryCode": "CN"
  },
  {
    "id": 48,
    "name": "Liangxi",
    "latitude": "31.56742060",
    "longitude": "120.29685940",
    "stateId": 2250,
    "stateCode": "JS",
    "countryCode": "CN"
  },
  {
    "id": 49,
    "name": "Lianshui",
    "latitude": "33.78346890",
    "longitude": "119.25521180",
    "stateId": 2250,
    "stateCode": "JS",
    "countryCode": "CN"
  },
  {
    "id": 50,
    "name": "Lianyun",
    "latitude": "34.76082920",
    "longitude": "119.33336490",
    "stateId": 2250,
    "stateCode": "JS",
    "countryCode": "CN"
  },
  {
    "id": 51,
    "name": "LianYunGang",
    "latitude": "34.59331340",
    "longitude": "119.21716620",
    "stateId": 2250,
    "stateCode": "JS",
    "countryCode": "CN"
  },
  {
    "id": 52,
    "name": "Lishui",
    "latitude": "31.65068820",
    "longitude": "119.02623990",
    "stateId": 2250,
    "stateCode": "JS",
    "countryCode": "CN"
  },
  {
    "id": 53,
    "name": "Liyang",
    "latitude": "31.41789580",
    "longitude": "119.47874710",
    "stateId": 2250,
    "stateCode": "JS",
    "countryCode": "CN"
  },
  {
    "id": 54,
    "name": "Luhe",
    "latitude": "32.32529380",
    "longitude": "118.81645700",
    "stateId": 2250,
    "stateCode": "JS",
    "countryCode": "CN"
  },
  {
    "id": 55,
    "name": "NanJing",
    "latitude": "32.04382840",
    "longitude": "118.77886310",
    "stateId": 2250,
    "stateCode": "JS",
    "countryCode": "CN"
  },
  {
    "id": 56,
    "name": "NanTong",
    "latitude": "31.98278960",
    "longitude": "120.89045880",
    "stateId": 2250,
    "stateCode": "JS",
    "countryCode": "CN"
  },
  {
    "id": 57,
    "name": "Peixian",
    "latitude": "34.76174210",
    "longitude": "116.93111860",
    "stateId": 2250,
    "stateCode": "JS",
    "countryCode": "CN"
  },
  {
    "id": 58,
    "name": "Pizhou",
    "latitude": "34.34027020",
    "longitude": "118.00681730",
    "stateId": 2250,
    "stateCode": "JS",
    "countryCode": "CN"
  },
  {
    "id": 59,
    "name": "Pukou",
    "latitude": "32.06163620",
    "longitude": "118.62208880",
    "stateId": 2250,
    "stateCode": "JS",
    "countryCode": "CN"
  },
  {
    "id": 60,
    "name": "Qidong",
    "latitude": "31.79514890",
    "longitude": "121.65093420",
    "stateId": 2250,
    "stateCode": "JS",
    "countryCode": "CN"
  },
  {
    "id": 61,
    "name": "Qingjiangpu",
    "latitude": "33.55379440",
    "longitude": "119.02104310",
    "stateId": 2250,
    "stateCode": "JS",
    "countryCode": "CN"
  },
  {
    "id": 62,
    "name": "Qinhuai",
    "latitude": "32.04114620",
    "longitude": "118.78960330",
    "stateId": 2250,
    "stateCode": "JS",
    "countryCode": "CN"
  },
  {
    "id": 63,
    "name": "Qixia",
    "latitude": "32.09854320",
    "longitude": "118.90416230",
    "stateId": 2250,
    "stateCode": "JS",
    "countryCode": "CN"
  },
  {
    "id": 64,
    "name": "Quanshan",
    "latitude": "34.22733680",
    "longitude": "117.18845780",
    "stateId": 2250,
    "stateCode": "JS",
    "countryCode": "CN"
  },
  {
    "id": 65,
    "name": "Rudong",
    "latitude": "32.33395820",
    "longitude": "121.18025020",
    "stateId": 2250,
    "stateCode": "JS",
    "countryCode": "CN"
  },
  {
    "id": 66,
    "name": "Rugao",
    "latitude": "32.37346580",
    "longitude": "120.56977410",
    "stateId": 2250,
    "stateCode": "JS",
    "countryCode": "CN"
  },
  {
    "id": 67,
    "name": "Runzhou",
    "latitude": "32.19783780",
    "longitude": "119.40562340",
    "stateId": 2250,
    "stateCode": "JS",
    "countryCode": "CN"
  },
  {
    "id": 68,
    "name": "Sheyang",
    "latitude": "33.76796060",
    "longitude": "120.32193010",
    "stateId": 2250,
    "stateCode": "JS",
    "countryCode": "CN"
  },
  {
    "id": 69,
    "name": "Shuyang",
    "latitude": "34.12976770",
    "longitude": "118.76008860",
    "stateId": 2250,
    "stateCode": "JS",
    "countryCode": "CN"
  },
  {
    "id": 70,
    "name": "Sihong",
    "latitude": "33.48026130",
    "longitude": "118.21127620",
    "stateId": 2250,
    "stateCode": "JS",
    "countryCode": "CN"
  },
  {
    "id": 71,
    "name": "Siyang",
    "latitude": "33.72483170",
    "longitude": "118.69823860",
    "stateId": 2250,
    "stateCode": "JS",
    "countryCode": "CN"
  },
  {
    "id": 72,
    "name": "Sucheng",
    "latitude": "33.96573030",
    "longitude": "118.23718810",
    "stateId": 2250,
    "stateCode": "JS",
    "countryCode": "CN"
  },
  {
    "id": 73,
    "name": "Suining",
    "latitude": "33.89636590",
    "longitude": "117.94528400",
    "stateId": 2250,
    "stateCode": "JS",
    "countryCode": "CN"
  },
  {
    "id": 74,
    "name": "SuQian",
    "latitude": "33.96447010",
    "longitude": "118.26969940",
    "stateId": 2250,
    "stateCode": "JS",
    "countryCode": "CN"
  },
  {
    "id": 75,
    "name": "Suyu",
    "latitude": "33.94856030",
    "longitude": "118.32579560",
    "stateId": 2250,
    "stateCode": "JS",
    "countryCode": "CN"
  },
  {
    "id": 76,
    "name": "SuZhou",
    "latitude": "31.31112300",
    "longitude": "120.62128810",
    "stateId": 2250,
    "stateCode": "JS",
    "countryCode": "CN"
  },
  {
    "id": 77,
    "name": "Taicang",
    "latitude": "31.45903710",
    "longitude": "121.12647720",
    "stateId": 2250,
    "stateCode": "JS",
    "countryCode": "CN"
  },
  {
    "id": 78,
    "name": "Taixing",
    "latitude": "32.16845830",
    "longitude": "120.01653620",
    "stateId": 2250,
    "stateCode": "JS",
    "countryCode": "CN"
  },
  {
    "id": 79,
    "name": "TaiZhou",
    "latitude": "32.45797290",
    "longitude": "119.91811740",
    "stateId": 2250,
    "stateCode": "JS",
    "countryCode": "CN"
  },
  {
    "id": 80,
    "name": "Tianning",
    "latitude": "31.79392420",
    "longitude": "119.99495380",
    "stateId": 2250,
    "stateCode": "JS",
    "countryCode": "CN"
  },
  {
    "id": 81,
    "name": "Tinghu",
    "latitude": "33.39855680",
    "longitude": "120.14525380",
    "stateId": 2250,
    "stateCode": "JS",
    "countryCode": "CN"
  },
  {
    "id": 82,
    "name": "Tongshan",
    "latitude": "34.18242170",
    "longitude": "117.16386690",
    "stateId": 2250,
    "stateCode": "JS",
    "countryCode": "CN"
  },
  {
    "id": 83,
    "name": "Tongzhou",
    "latitude": "32.06797530",
    "longitude": "121.06907480",
    "stateId": 2250,
    "stateCode": "JS",
    "countryCode": "CN"
  },
  {
    "id": 84,
    "name": "Wujiang",
    "latitude": "30.99435520",
    "longitude": "120.59881900",
    "stateId": 2250,
    "stateCode": "JS",
    "countryCode": "CN"
  },
  {
    "id": 85,
    "name": "Wujin",
    "latitude": "31.70204060",
    "longitude": "119.93775420",
    "stateId": 2250,
    "stateCode": "JS",
    "countryCode": "CN"
  },
  {
    "id": 86,
    "name": "WuXi",
    "latitude": "31.57766260",
    "longitude": "120.29527520",
    "stateId": 2250,
    "stateCode": "JS",
    "countryCode": "CN"
  },
  {
    "id": 87,
    "name": "Wuzhong",
    "latitude": "31.26549260",
    "longitude": "120.62794210",
    "stateId": 2250,
    "stateCode": "JS",
    "countryCode": "CN"
  },
  {
    "id": 88,
    "name": "Xiangcheng",
    "latitude": "31.37168600",
    "longitude": "120.63816180",
    "stateId": 2250,
    "stateCode": "JS",
    "countryCode": "CN"
  },
  {
    "id": 89,
    "name": "Xiangshui",
    "latitude": "34.20111210",
    "longitude": "119.57225320",
    "stateId": 2250,
    "stateCode": "JS",
    "countryCode": "CN"
  },
  {
    "id": 90,
    "name": "Xinbei",
    "latitude": "31.86446680",
    "longitude": "119.95625020",
    "stateId": 2250,
    "stateCode": "JS",
    "countryCode": "CN"
  },
  {
    "id": 91,
    "name": "Xinghua",
    "latitude": "32.91391510",
    "longitude": "119.84760350",
    "stateId": 2250,
    "stateCode": "JS",
    "countryCode": "CN"
  },
  {
    "id": 92,
    "name": "Xinwu",
    "latitude": "31.49197900",
    "longitude": "120.35935290",
    "stateId": 2250,
    "stateCode": "JS",
    "countryCode": "CN"
  },
  {
    "id": 93,
    "name": "Xinyi",
    "latitude": "34.36970150",
    "longitude": "118.34875970",
    "stateId": 2250,
    "stateCode": "JS",
    "countryCode": "CN"
  },
  {
    "id": 94,
    "name": "Xishan",
    "latitude": "31.59257420",
    "longitude": "120.35453730",
    "stateId": 2250,
    "stateCode": "JS",
    "countryCode": "CN"
  },
  {
    "id": 95,
    "name": "Xuanwu",
    "latitude": "32.05067720",
    "longitude": "118.79270490",
    "stateId": 2250,
    "stateCode": "JS",
    "countryCode": "CN"
  },
  {
    "id": 96,
    "name": "Xuyi",
    "latitude": "33.01395470",
    "longitude": "118.53865700",
    "stateId": 2250,
    "stateCode": "JS",
    "countryCode": "CN"
  },
  {
    "id": 97,
    "name": "XuZhou",
    "latitude": "34.26652580",
    "longitude": "117.18104310",
    "stateId": 2250,
    "stateCode": "JS",
    "countryCode": "CN"
  },
  {
    "id": 98,
    "name": "YanCheng",
    "latitude": "33.34955900",
    "longitude": "120.15770190",
    "stateId": 2250,
    "stateCode": "JS",
    "countryCode": "CN"
  },
  {
    "id": 99,
    "name": "Yandu",
    "latitude": "33.33987910",
    "longitude": "120.14838080",
    "stateId": 2250,
    "stateCode": "JS",
    "countryCode": "CN"
  },
  {
    "id": 100,
    "name": "Yangzhong",
    "latitude": "32.23752970",
    "longitude": "119.79219130",
    "stateId": 2250,
    "stateCode": "JS",
    "countryCode": "CN"
  },
  {
    "id": 101,
    "name": "YangZhou",
    "latitude": "32.39685540",
    "longitude": "119.40776580",
    "stateId": 2250,
    "stateCode": "JS",
    "countryCode": "CN"
  },
  {
    "id": 102,
    "name": "Yixing",
    "latitude": "31.34959720",
    "longitude": "119.81725300",
    "stateId": 2250,
    "stateCode": "JS",
    "countryCode": "CN"
  },
  {
    "id": 103,
    "name": "Yizheng",
    "latitude": "32.27509890",
    "longitude": "119.17908980",
    "stateId": 2250,
    "stateCode": "JS",
    "countryCode": "CN"
  },
  {
    "id": 104,
    "name": "Yuhuatai",
    "latitude": "31.99311430",
    "longitude": "118.77395790",
    "stateId": 2250,
    "stateCode": "JS",
    "countryCode": "CN"
  },
  {
    "id": 105,
    "name": "Yunlong",
    "latitude": "34.25449120",
    "longitude": "117.24575150",
    "stateId": 2250,
    "stateCode": "JS",
    "countryCode": "CN"
  },
  {
    "id": 106,
    "name": "Zhangjiagang",
    "latitude": "31.87829760",
    "longitude": "120.55145950",
    "stateId": 2250,
    "stateCode": "JS",
    "countryCode": "CN"
  },
  {
    "id": 107,
    "name": "ZhenJiang",
    "latitude": "32.18919590",
    "longitude": "119.42000690",
    "stateId": 2250,
    "stateCode": "JS",
    "countryCode": "CN"
  },
  {
    "id": 108,
    "name": "Zhonglou",
    "latitude": "31.80407870",
    "longitude": "119.89705950",
    "stateId": 2250,
    "stateCode": "JS",
    "countryCode": "CN"
  }
]